USAF,WBAN,STATION NAME,LAT,LON
007018,99999,WXPOD 7018,0,0
007026,99999,WXPOD 7026,0,0
007070,99999,WXPOD 7070,0,0
008260,99999,WXPOD8270,0,0
008268,99999,WXPOD8278,32.95,65.567
008307,99999,WXPOD 8318,0,0
008411,99999,XM20,,
008414,99999,XM18,,
008415,99999,XM21,,
008418,99999,XM24,,
010000,99999,BOGUS NORWAY,,
010010,99999,JAN MAYEN(NOR-NAVY),70.933,-8.667
010013,99999,ROST,,
010014,99999,SORSTOKKEN,59.792,5.341
010015,99999,BRINGELAND,61.383,5.867
010016,99999,RORVIK/RYUM,64.85,11.233
010017,99999,FRIGG,59.98,2.25
010020,99999,VERLEGENHUKEN,80.05,16.25
010030,99999,HORNSUND,77,15.5
010040,99999,NY-ALESUND II,78.917,11.933
010050,99999,ISFJORD RADIO,78.067,13.633
010060,99999,EDGEOYA,78.25,22.817
010070,99999,NY-ALESUND,78.917,11.933
010071,99999,LONGYEARBYEN,78.217,15.583
010080,99999,LONGYEAR,78.246,15.466
010090,99999,KARL XII OYA,80.65,25
010100,99999,ANDOYA,69.293,16.144
010110,99999,KVITOYA,80.067,31.5
010120,99999,,,
010140,99999,SENJA-LAUKHELLA,69.233,17.9
010150,99999,HEKKINGEN FYR,69.6,17.833
010160,99999,KONGSOYA,78.933,28.9
010170,99999,AKSELOYA,77.683,14.783
010171,99999,GIBOSTAD,69.35,18.083
010190,99999,SVARTTANGEN,77.517,20.817
010200,99999,SORKAPPOYA,76.483,16.55
010230,99999,BARDUFOSS,69.056,18.54
010231,99999,DRAUGEN,64.35,7.8
010240,99999,PYRAMIDEN,78.65,16.367
010250,99999,TROMSO,69.683,18.919
010260,99999,TROMSO,69.65,18.933
010270,99999,TROMSO-HOLT,69.65,18.9
010280,99999,BJORNOYA ISLAND,74.517,19.017
010300,99999,KISTEFJELL,69.283,18.133
010303,99999,TROMSO/SKATTURA,69.7,19.017
010320,99999,OVERBYGD,69.017,19.283
010330,99999,TORSVAG FYR,70.25,19.5
010340,99999,FUGLOYKALVEN FYR,70.317,20.15
010350,99999,LYNGEN GJERDVASSBU,69.567,20.1
010360,99999,NORDNESFJELLET,69.567,20.433
010361,99999,SKIBOTIN,69.367,20.267
010370,99999,SKIBOTN 2,69.383,20.283
010400,99999,SKJERVOY,70.033,20.983
010410,99999,NORDREISA-OYENG,69.733,21.017
010420,99999,HASVIK-SLUSKFJELLET,70.6,22.45
010430,99999,ROGNSUNDET,70.417,22.817
010431,99999,LOPPA,70.333,21.467
010435,99999,HASVIK,70.483,22.15
010440,99999,HASVIK,70.487,22.14
010450,99999,NORDSTRAUM I KVAENANGEN,69.833,21.883
010455,99999,,,
010460,99999,SORKJOSEN,69.787,20.959
010470,99999,KAUTOKEINO II,69.017,23.067
010490,99999,ALTA,69.976,23.372
010510,99999,SUOLOVUOPMI,69.583,23.533
010520,99999,HAMMERFEST AP,70.683,23.683
010530,99999,HAMMERFEST RADIO,70.683,23.683
010550,99999,FRUHOLMEN FYR,71.1,23.983
010570,99999,CUOVDDATMOHKKI,69.367,24.433
010580,99999,SUOLOVUOPMI LULIT,69.567,23.533
010590,99999,BANAK,70.069,24.973
010610,99999,BRENNELV,70.067,25.117
010617,99999,OSEBERG,,
010620,99999,HOPEN ISLAND,76.5,25.067
010630,99999,KISTRAND III,70.45,25.217
010650,99999,KARASJOK,69.467,25.517
010660,99999,HELNES FYR,71.067,26.233
010670,99999,LEVAJOK-EVJEN,69.9,26.417
010671,99999,LEVAJOK-EVJEN,69.9,26.417
010680,99999,HONNINGSVAG/VALAN,71.017,25.983
010720,99999,,,
010740,99999,MEHAMN,71.033,27.833
010750,99999,RUSTEFJELBMA,70.4,28.2
010760,99999,TANABRU,70.217,28.167
010780,99999,SLETTNES FYR,71.1,28.233
010820,99999,NYRUD,69.15,29.25
010830,99999,BERLEVAG,70.867,29.033
010840,99999,PASVIK,69.45,30.033
010850,99999,BUGOYFJORD,69.85,29.417
010860,99999,BATSFJORD,70.6,29.693
010875,99999,HEIMDAL OIL PLATFORM,59.567,2.217
010876,99999,NORNE OIL PLATFORM,66.017,8.083
010877,99999,TROLL A  OIL PLATFORM,60.633,3.717
010878,99999,SNORRE A  OIL PLATFORM,61.45,2.133
010879,99999,SNORRE B  OIL PLATFORM,61.533,2.2
010880,99999,VADSO,70.067,29.85
010881,99999,NARVIK III/FRAMNES,68.467,17.5
010882,99999,ROROS,62.578,11.342
010883,99999,SANDANE/ANDA,61.833,6.117
010884,99999,GEITERYGGEN,59.185,9.567
010885,99999,BATSFJORD,70.6,29.733
010886,99999,SLEIPNER A OIL PLATFORM,58.367,1.9
010887,99999,TROLL C OIL PLATFORM,60.886,3.61
010890,99999,HOYBUKTMOEN,69.726,29.893
010920,99999,MAKKAUR FYR,70.7,30.083
010970,99999,SVARTNES,70.35,31.05
010980,99999,VARDO,70.367,31.1
010985,99999,,,
010986,99999,,,
010987,99999,,,
010990,99999,VARDO AP / SVARTNES,70.355,31.045
011010,99999,BOGUS NORWEGIAN,,
011020,99999,SKLINNA FYR,65.2,11
011025,99999,HEIDRUN,65.333,7.317
011030,99999,LEKA,65.1,11.7
011040,99999,ROTVAER,68.367,15.95
011050,99999,ROTVAER,68.367,15.95
011051,99999,SKOMVAER (LGT-H),67.417,11.883
011060,99999,ROEST III,67.517,12.1
011070,99999,ROST (NOR-AFB),67.517,12.1
011080,99999,VEGA-VALLSJO,65.7,11.85
011090,99999,SKALVAER,65.867,12.183
011100,99999,YTTERHOLMEN FYR,66,11.683
011110,99999,BRONNOYSUND,65.467,12.217
011120,99999,BRONNOY,65.461,12.218
011130,99999,GLOMFJORD,66.8,13.983
011133,99999,DAGALI,60.417,8.513
011140,99999,REIPA,66.9,13.633
011150,99999,MYKEN,66.767,12.483
011160,99999,STOKKA,65.95,12.467
011170,99999,TJOTTA,65.817,12.417
011210,99999,SOLVAER III,66.367,12.617
011220,99999,KJAERSTAD,65.784,13.215
011240,99999,SNASA,64.167,12.467
011310,99999,GLAPEN LIGHTHOUSE,67.883,13.05
011320,99999,MAJAVATN V,65.167,13.367
011330,99999,LAKSFORS,65.617,13.283
011340,99999,MAJAVATN III,65.183,13.417
011350,99999,SELJELIA,66.117,13.583
011370,99999,STOTT,66.933,13.45
011380,99999,TENNHOLMEN (LGT-H),67.3,13.5
011390,99999,VAEROY HELIPORT,67.65,12.717
011410,99999,LEKNES,68.15,13.617
011430,99999,DRAG-AJLUOKTA,68.05,16.083
011440,99999,HELLIGVAER II,67.4,13.883
011450,99999,KVALNES I LOFOTEN,68.35,13.967
011460,99999,SKAMDAL,66.233,13.883
011470,99999,VARNTRESK,65.833,14.183
011480,99999,STORFORSHEI,66.383,14.517
011490,99999,RANA-BASMOEN,66.333,14.1
011500,99999,HJARTASEN,66.5,14.95
011501,99999,HATTFJELLDAL-KRUTA,65.683,14.167
011505,99999,,,
011510,99999,MOIRANA,66.367,14.3
011520,99999,BODO,67.269,14.365
011530,99999,BODO-VAGONES,67.283,14.45
011540,99999,LITLOY FYR,68.583,14.3
011550,99999,BO I VESTERALEN II,68.633,14.467
011560,99999,BO I VESTERALEN,68.6,14.433
011580,99999,SETSA,67.167,15.483
011600,99999,SKROVA FYR,68.15,14.65
011610,99999,SVOLVAER/HELLE,68.25,14.667
011620,99999,STORKMARKNES/SKAGEN,68.583,15.017
011630,99999,BOLNA,66.5,15.25
011650,99999,GROTOY,67.833,14.783
011670,99999,SORTLAND,68.7,15.417
011680,99999,KLEIVA I SORTLAND,68.65,15.283
011690,99999,SALTDAL-NORDNES,66.933,15.317
011691,99999,OVRE SALTDAL,66.967,15.317
011700,99999,FAUSKE-VETEN,67.233,15.317
011720,99999,FINNOY I HAMAROY,68,15.617
011730,99999,,,
011751,99999,LODINGEN,68.4,16
011760,99999,KONGSVIK,68.567,16.267
011800,99999,HARSTAD,68.8,16.533
011820,99999,EVENSKJER,68.583,16.583
011830,99999,EVENES,68.491,16.678
011840,99999,SANDSOY I SENJA,68.933,16.683
011841,99999,SANDSOY,68.933,16.683
011890,99999,LILAND,68.483,16.883
011895,99999,,,
011910,99999,SKJOMEN-SLETTJORD,68.283,17.317
011920,99999,STRAUMSNES,68.417,17.65
011930,99999,NARVIK III/FRAMNES,68.467,17.5
011940,99999,NARVIK III,68.467,17.5
011960,99999,TENNEVOLL,68.75,17.817
011980,99999,DIVIDALEN II,68.783,19.7
011990,99999,SIHCCAJAVRI,68.75,23.533
012030,99999,KRAKENES,62.033,4.983
012050,99999,SVINOY LH,62.333,5.267
012070,99999,FISKABYGD,62.1,5.583
012090,99999,ORSTA-VOLDA/HOVDEN,62.183,6.067
012091,99999,ORSTA-VOLDA/HOVD,62.183,6.05
012100,99999,VIGRA,62.56,6.11
012120,99999,ONA II,62.867,6.533
012140,99999,REKDAL,62.65,6.767
012150,99999,HJELVIK MYRBO,62.62,7.23
012160,99999,HJELVIK I ROMSDAL,62.617,7.217
012161,99999,GJERMUNDNES,62.617,7.167
012170,99999,ARO,62.745,7.263
012180,99999,TAFJORD,62.233,7.417
012200,99999,MANNEN,62.45,7.767
012210,99999,TAGDALEN,63.05,9.083
012220,99999,,,
012230,99999,KVERNBERGET,63.112,7.825
012240,99999,AALESUND,62.467,6.217
012250,99999,VEIHOLMEN,63.517,7.95
012270,99999,INNERDALEN,62.717,8.783
012273,99999,TINGVOLL-HANEM,62.833,8.3
012280,99999,SULA,63.85,8.467
012300,99999,BJORLI,62.267,8.2
012310,99999,LESJASKOG,62.233,8.367
012320,99999,VINJEORA II,62.45,7.85
012330,99999,DOMBAAS,62.083,9.117
012340,99999,ORKDAL-THAMSHAMN,63.317,9.85
012350,99999,DOMBAS-KIRKENAER,62.083,9.133
012360,99999,KJOREMSGRENDE,62.1,9.05
012370,99999,HITRA,63.517,9.117
012380,99999,FOKSTUA II,62.117,9.283
012390,99999,HJERKINN II,62.217,9.55
012400,99999,HALTEN FYR,64.167,9.4
012410,99999,ORLAND,63.699,9.604
012420,99999,AFJORD II,63.967,10.217
012430,99999,SONGLI,63.333,9.65
012450,99999,OPPDAL-SETER,62.6,9.667
012480,99999,VALLERSUND,63.85,9.733
012500,99999,FOLLDAL-FREDHEIM,62.133,10
012520,99999,BERKAK-LYNGHOLT,62.817,10.017
012530,99999,SOKNEDAL,62.95,10.183
012540,99999,KOTSOY,62.983,10.55
012570,99999,TRONDHEIM/VOLL,63.417,10.45
012580,99999,TRONDHEIM (TYHOLT),63.417,10.433
012590,99999,BUHOLMRASA LH,64.4,10.45
012620,99999,NORDOYAN FYR,64.8,10.55
012650,99999,TYNSET-HANSMOEN,62.267,10.733
012680,99999,,,
012700,99999,KVITHAMAR,63.483,10.883
012710,99999,VAERNES,63.458,10.94
012720,99999,FROSTA,63.567,10.7
012730,99999,SELBU,63.233,11.017
012740,99999,SELBU-STUBBE,63.2,11.117
012770,99999,STEINKJER,64.017,11.45
012771,99999,LEVANGER-EGGEN,63.717,11.233
012780,99999,VERDAL-REPPE,63.783,11.683
012800,99999,NAMDALSEID-VENGSTAD,64.133,11.333
012810,99999,NAMSSKOGAN,64.733,12.85
012820,99999,RORVIK/RYUM,64.85,11.233
012823,99999,RORVIK/RYUM,64.85,11.233
012870,99999,SOLENDET,62.683,11.817
012880,99999,ROROS,62.567,11.383
012890,99999,ROROS LUFTHAVN,62.583,11.35
012891,99999,ROROS/AIRPORT,62.583,11.383
012900,99999,NAMSOS AIRPORT,64.467,11.583
012910,99999,GARTLAND,64.533,12.383
012920,99999,MERAKER-UTSYN,63.417,11.7
012930,99999,MERAKER-EGGE,63.417,11.733
012940,99999,,,
012950,99999,HOYLANDET,64.55,12.15
012960,99999,BERG I SNASA,64.25,12.417
012980,99999,NORDLI-HOLAND,64.45,13.717
013000,99999,GULLFAKS C,61.2,2.267
013005,99999,STATFJORD OIL PLATFORM HELIPO,61.25,1.85
013040,99999,YTTEROYANE FYR,61.567,4.683
013060,99999,HELLISOY FYR,60.75,4.717
013070,99999,FEDJE,60.75,4.717
013080,99999,FURUNESET,61.3,5.05
013090,99999,KINN ISLAND,61.567,4.8
013100,99999,FLORO,61.584,5.025
013110,99999,FLESLAND,60.293,5.218
013140,99999,FOSSMARK,60.517,5.717
013150,99999,EVANGER,60.633,6.1
013160,99999,BERGEN-FREDRIKSBERG,60.4,5.317
013170,99999,BERGEN/FLORIDA,60.383,5.333
013180,99999,SANDANE,61.783,6.183
013190,99999,TAKLE,61.033,5.383
013200,99999,SANDANE/ANDA,61.833,6.117
013210,99999,STRYN,61.9,6.55
013220,99999,FORDE-TEFRE,61.467,5.917
013230,99999,BRINGELAND,61.393,5.764
013250,99999,MODALEN II,60.833,5.95
013260,99999,MODALEN III,60.85,5.983
013270,99999,KVAMSKOGEN-JONSHOGDI,60.383,5.967
013280,99999,KVAMSKOGEN,60.4,5.917
013290,99999,KVAMSOY,60.35,6.267
013300,99999,OMASTRAND,60.217,5.983
013320,99999,FJAERLAND BREMUSEET,61.43,6.77
013360,99999,BULKEN,60.65,6.217
013370,99999,VOSSEVANGEN,60.633,6.433
013380,99999,VANGSNES,61.167,6.65
013390,99999,VANGSNES,61.167,6.65
013400,99999,FET I EIDFJORD,60.42,7.28
013410,99999,EIDFJORD-BU,60.467,6.867
013420,99999,ULLENSVANG,60.317,6.65
013440,99999,MJOLFJELL,60.7,6.95
013450,99999,KLEVAVATNET,60.717,7.217
013460,99999,MIDTSTOVA,60.65,7.267
013470,99999,SOGNDAL HAUKASEN,61.156,7.137
013471,99999,SOGNDAL/HAUKASEN,61.167,7.133
013500,99999,FINSEVATN,60.6,7.533
013510,99999,FINSE III,60.6,7.5
013520,99999,SANDHAUG,60.183,7.483
013550,99999,LAERDAL IV,61.1,7.5
013560,99999,FANNARAKI,61.517,7.9
013570,99999,HOLLEKOLTEN,60.867,8.517
013580,99999,HEMSEDAL II,60.85,8.6
013590,99999,GEILO-OLDEBRATEN,60.533,8.2
013591,99999,HAUGASTOL,60.517,7.867
013600,99999,BRATA-SLETTOM,61.9,7.9
013610,99999,GROTLI III,62.017,7.667
013620,99999,JUVVASSHOE,61.667,8.367
013630,99999,,,
013640,99999,FILEFJELL,61.183,8.117
013650,99999,BEITOSTOLEN II,61.251,8.917
013660,99999,SOGNEFJELL,61.567,8
013670,99999,FAGERNES,60.983,9.217
013671,99999,BEITOSTOLEN,61.233,8.933
013680,99999,LEIRIN,61.016,9.288
013690,99999,ABJORSBRATEN,60.917,9.283
013700,99999,SKABU,61.517,9.4
013710,99999,LOKEN I VOLBU,61.117,9.067
013720,99999,NESBYEN-SKOGLUND,60.567,9.133
013730,99999,NESBYEN-TODOKK,60.567,9.133
013740,99999,VEST-TORPA II,60.933,10.033
013741,99999,,,
013743,99999,FAGERNES/LEIRIN   &,61,9.3
013750,99999,KVITFJELL,61.467,10.133
013755,99999,GULLFAX (PLATFORM),61.033,2.033
013760,99999,GULSVIK II,60.383,9.6
013780,99999,LILLEHAMMER-SAETHERENGEN,61.1,10.467
013790,99999,SOR-NESSET,61.883,10.15
013800,99999,VENABU,61.65,10.117
013801,99999,KITTILBU,61.167,9.967
013810,99999,APELSVOLL,60.7,10.867
013820,99999,KISE,60.767,10.8
013830,99999,EVENSTAD-DIH,61.4,11.08
013839,99999,HAMAR / STAFSBERG,60.817,11.067
013840,99999,GARDERMOEN,60.194,11.1
013850,99999,HAMER,60.817,11.067
013860,99999,HAMAR II,60.8,11.1
013870,99999,FAVANG,61.45,10.183
013890,99999,RENA AP,61.183,11.367
013910,99999,FLISA,60.617,12.017
013920,99999,FLISA II,60.617,12.017
013930,99999,DREVSJO,61.883,12.033
013970,99999,TRYSIL VEGSTASJON,61.3,12.267
014000,99999,EKOFISK,56.55,3.217
014010,99999,FRIGG,59.983,2.25
014030,99999,UTSIRA FYR,59.3,4.867
014033,99999,EKOFISK OIL PLTFRM,56.55,3.25
014035,99999,KARMOY,59.35,5.217
014060,99999,SLATTEROY FYR,59.917,5.067
014080,99999,KARMOY,59.345,5.208
014090,99999,SKUDENES,59.15,5.25
014110,99999,KVITSOY - NORDBO,59.067,5.417
014120,99999,OBRESTAD,58.65,5.567
014130,99999,SAERHEIM,58.75,5.65
014140,99999,ROVER,59.433,5.067
014150,99999,SOLA,58.877,5.638
014160,99999,STAVANGER VAALAND,58.95,5.733
014170,99999,NEDRE VATS,59.483,5.75
014180,99999,AUSTEVOLL,60.017,5.2
014190,99999,LIARVATN,59.05,6.117
014211,99999,INDRE MATRE,59.85,6
014220,99999,FISTER SIGMUNDSTAD,59.167,6.033
014230,99999,FISTER-TONNEVIK,59.167,6.05
014240,99999,SAUDA,59.65,6.367
014250,99999,EIK HOVE,58.517,6.517
014260,99999,EIGEROYA,58.433,5.867
014270,99999,LISTA FYR,58.117,6.567
014280,99999,LISTA,58.099,6.626
014281,99999,ULA OIL PLATFORM,59.111,2.846
014300,99999,MANDAL II,58.017,7.45
014310,99999,SIRDAL-SINNES,58.933,6.917
014320,99999,SIRDAL-TJORHOM,58.883,6.85
014321,99999,FIDJELAND,58.967,6.933
014330,99999,MIDTLAEGER,59.833,6.983
014340,99999,VAAGSLI,59.767,7.367
014350,99999,HAUKELISETER TESTFELT,59.817,7.217
014360,99999,LINDESNES FYR,57.983,7.05
014390,99999,KONSMO-HOYLAND,58.25,7.442
014400,99999,BLASJO,59.333,6.867
014410,99999,HOVDEN-LUNDANE,59.583,7.383
014420,99999,BYGLANDSFJORD,58.667,7.8
014440,99999,VALLE,59.2,7.517
014450,99999,SKAFSA,59.45,8
014460,99999,OYFJELL-TROVATN,59.567,8.2
014470,99999,HOYDALSMO II,59.5,8.2
014480,99999,OKSOY FYR,58.067,8.05
014490,99999,GJERSTAD,58.867,9.033
014500,99999,MOSSTRAND II,59.833,8.183
014520,99999,KJEVIK,58.204,8.085
014530,99999,HYNNEKLEIV,58.6,8.417
014550,99999,TVEITSUND,59.033,8.517
014590,99999,NELAUG,58.65,8.633
014600,99999,GULLHOLMEN,59.433,10.583
014610,99999,,,
014611,99999,GAUSTATOPPEN,59.85,8.65
014620,99999,PORSGRUNN,59.083,9.667
014630,99999,AS,59.65,10.767
014640,99999,LANDVIK,58.333,8.517
014650,99999,TORUNGEN FYR,58.4,8.783
014660,99999,KJELLER AP,59.967,11.033
014670,99999,LYNGOR FYR,58.633,9.15
014680,99999,KONGSVINGER,60.183,12
014690,99999,HONEFOSS-HOYBY,60.167,10.25
014700,99999,GVARV,59.383,9.2
014703,99999,NOTODDEN,59.566,9.212
014710,99999,VEGGLI II,60.05,9.15
014730,99999,KONGSBERG BRANNSTASJON,59.617,9.633
014740,99999,LYNGDAL I NUMEDAL,59.9,9.533
014750,99999,SKIEN-GEITERYGGEN,59.183,9.567
014760,99999,JOMFRULAND FYR,58.85,9.55
014770,99999,KONNERUD,59.717,10.15
014780,99999,SVENNER LH,58.967,10.15
014800,99999,DRAMMEN BERSKOG,59.75,10.133
014810,99999,MELSOM,59.233,10.35
014820,99999,FERDER LH,59.033,10.517
014825,99999,TORP,59.187,10.259
014830,99999,TORP,59.183,10.267
014840,99999,AURSKOG,59.917,11.583
014843,99999,OSEBERG,59.317,10.45
014850,99999,DANDE-GALLEBERG,59.617,10.217
014860,99999,ASKER,59.85,10.433
014870,99999,ALNA,59.933,10.833
014880,99999,HAKADAL,60.117,10.833
014881,99999,STATFJORD B OIL PLATFORM,61.206,1.829
014890,99999,BJORNHOLT,60.05,10.683
014900,99999,TRYVANNSHOGDA,59.983,10.683
014920,99999,OSLO-BLINDERN,59.95,10.717
014930,99999,SARPSBORG,59.283,11.117
014940,99999,RYGGE,59.379,10.786
014950,99999,STROMTANGEN FYR,59.15,10.833
014960,99999,HOLAND-FOSSER,59.817,11.483
014965,99999,,,
014970,99999,PRESTEBAKKE,59,11.533
014980,99999,MAGNOR,59.967,12.217
014981,99999,,,
014983,99999,STATFJORD OIL RIG &,,
014990,99999,VAEROY,,
014993,99999,VAEROY,,
015000,99999,RAKKESTAD,59.383,11.383
020001,99999,LJUNGBYHED,56.083,13.213
020120,99999,RITSEM,67.733,17.467
020130,99999,RITSEM,67.733,17.467
020180,99999,SUORVA,67.533,18.233
020190,99999,KATTERJAKK A,68.417,18.167
020200,99999,KATTERJAKK,68.417,18.167
020220,99999,ABISKO,68.354,18.816
020230,99999,TORNEHAMN (AUT),68.433,18.633
020240,99999,STORA SJOFALLET,67.5,18.3
020260,99999,ALUOKTA,67.317,18.883
020290,99999,TARFALA,67.917,18.6
020310,99999,RENSJON,68.067,19.833
020320,99999,TORNETRASK LAKE,68.217,19.717
020360,99999,NIKKALUOKTA,67.85,19.033
020380,99999,LATNIVAARA,67.25,20.267
020430,99999,ESRANGE,67.933,21.067
020440,99999,KIRUNA,67.822,20.337
020450,99999,KIRUNA-SOL,67.833,20.417
020480,99999,MALMBERGET,67.167,20.667
020490,99999,GALLIVARE,67.132,20.815
020500,99999,RIKSGRANSEN,68.417,18.117
020510,99999,KARESUANDO,68.45,22.5
020520,99999,KVIKKJOKK         &,66.95,17.75
020530,99999,MALMBERGET,67.133,20.667
020540,99999,NEDRE SOPPERO,68.05,21.75
020550,99999,NAIMAKKA,68.683,21.533
020560,99999,STENSELE,65.067,17.167
020570,99999,KALLAX/LULEA (AFB),65.55,22.133
020580,99999,HAPARANDA         &,65.833,24.15
020590,99999,GADDEDE,64.5,14.133
020600,99999,NAIMAKKA,68.683,21.533
020620,99999,OSTERSUND FROSON AB,63.183,14.5
020630,99999,ASELE,64.167,17.367
020640,99999,SAITTAROVA,67.333,22.233
020650,99999,SVEG              &,62.033,14.367
020660,99999,SUNDSVALL/HARNOSAND,62.533,17.45
020670,99999,SARNA,61.683,13.133
020680,99999,DELSBO,61.8,16.567
020690,99999,SODERHAMN (SWE-AFB),61.267,17.1
020700,99999,GUSTAVSFORS       &,60.15,13.8
020710,99999,NORRKOPING-SOL,58.583,16.15
020711,99999,BORLANGE,60.417,15.517
020720,99999,PARKALOMPOLO,67.733,22.833
020730,99999,KARLSTAD          &,59.367,13.467
020740,99999,OREBRO/EKEBY,59.267,15.333
020750,99999,VASTERAS/HASSLO AFB,59.583,16.633
020760,99999,UPPSALA           &,59.883,17.6
020770,99999,STOCKHOLM/BROMMA  &,59.35,17.95
020790,99999,SATENAS (SWE-AFB),58.433,12.7
020800,99999,KARESUANDO,68.45,22.45
020810,99999,KARESUANDO,68.45,22.45
020820,99999,LANDSORT          &,58.75,17.867
020830,99999,GOTSKA SANDON     &,58.4,19.2
020840,99999,LANNAVAARA        &,68.05,22
020850,99999,RANGEDALA (AUTO),57.717,13.117
020860,99999,LAINIO,67.767,22.35
020870,99999,JONKOPING         &,57.767,14.083
020880,99999,KOMPELUSVAARA,67.083,22.217
020890,99999,OLANDS NORRA UDDE &,57.367,17.1
020900,99999,VISBY             &,57.667,18.35
020910,99999,VISBY-SOL,57.667,18.35
020920,99999,MUODOSLOMPOLO,67.95,23.467
020930,99999,VAXJO             &,56.867,14.8
020940,99999,UNGSKAR,56.033,15.8
020950,99999,PAJALA,67.2,23.383
020960,99999,PAJALA,67.217,23.4
020970,99999,MALMO /BULLTOFTON,55.6,13.067
020980,99999,MALMO/STURUP,55.55,13.367
020990,99999,YSTAD             &,55.433,13.833
021000,99999,NAIMAKKA,68.683,21.533
021010,99999,HEMAVAN,65.806,15.083
021020,99999,STEKENJOKK,65.1,14.517
021030,99999,HEMAVAN-GIEREVARTO,65.783,15.067
021040,99999,HEMAVAN,65.817,15.083
021050,99999,ABELVATTNET,65.533,14.983
021060,99999,JOKKMOKK (SWE-AFB),66.6,19.833
021080,99999,KLIMPFJALL,65.067,14.8
021090,99999,ABRAUR,65.9,19.1
021100,99999,GIELAS,65.333,15.067
021110,99999,VIDSEL (SWE-AFB),65.867,20.133
021120,99999,SYLARNA,63.05,12.267
021140,99999,NORRAKER,64.45,15.6
021150,99999,STORLIEN-VISJOVALE&,63.3,12.133
021160,99999,MORSIL,63.317,13.65
021170,99999,NORDMALING,63.567,19.5
021180,99999,DIKANAS/SKANSNAS,65.317,16.033
021190,99999,KVIKKJOKK ARRENJARKA,66.883,18.017
021200,99999,KVIKKJOKK-ARRENJARKA,66.883,18.017
021205,99999,STORUMAN,64.95,17.7
021210,99999,MIERKENIS,66.683,16.117
021220,99999,STENUDDEN,66.533,17.667
021230,99999,JAKKVIK,66.317,17.1
021240,99999,ARJEPLOG,66.05,17.833
021250,99999,OSTMARK,60.317,12.7
021260,99999,GUNNARN,65.017,17.7
021270,99999,STENSELE,65.067,17.167
021280,99999,GUNNARN,65,17.7
021290,99999,GUNNARN SOL (AUT),64.967,17.7
021300,99999,ROPARUDDEN,66.483,16.417
021310,99999,ARVIKA,59.667,12.583
021330,99999,SNAVLUNDA,58.967,14.9
021350,99999,BURESJON,65.567,17.867
021360,99999,STORBERG,65.5,18.95
021380,99999,GRUNDKALLEN,60.5,18.867
021410,99999,TJAKAAPE,66.317,19.217
021420,99999,JOKKMOKK,66.496,20.147
021430,99999,PALJAMYREN,66.217,19.133
021440,99999,ABRAUR,65.983,18.933
021450,99999,TELLEJAUR,66.15,19.633
021460,99999,VAJMAT,66.5,19.683
021470,99999,MALA-BRANNAN,65.15,18.6
021480,99999,NORRKOPING/BRAVALLA,58.617,16.117
021490,99999,ARVIDSJAUR,65.6,19.267
021500,99999,NYKOPING/SKAVST AFB,58.783,16.917
021510,99999,JOKKMOKK FPL,66.483,20.167
021520,99999,SUDOK,66.3,20.417
021540,99999,VIDSEL,65.875,20.15
021550,99999,HAGSHULT (SWE-AFB),57.3,14.133
021560,99999,STENSJON (AUT),63.967,13.717
021580,99999,FALLFORS,65.133,20.783
021590,99999,FALLFORS,65.12,20.77
021600,99999,NATTAVAARA,66.75,21.05
021610,99999,NATTAVAARA,66.75,20.933
021620,99999,MARKARYD,56.467,13.65
021630,99999,LJUNGBYHED(SWE-AFB),56.083,13.233
021640,99999,PALKEM,66.383,21.633
021660,99999,RONNEBY (SWE-AFB),56.267,15.283
021670,99999,FALSTERBO (LGT-H),55.383,12.817
021690,99999,HEDEN,65.867,21.45
021700,99999,SAVAST,65.75,21.767
021710,99999,BODEN,65.817,21.633
021720,99999,ALVSBYN,65.683,20.967
021730,99999,ALVSBYN,65.667,21.067
021740,99999,LAKATRASK,66.283,21.133
021760,99999,PITE-RONNSKAR,65.033,21.567
021810,99999,OVERKALIX SVARTBYN,66.267,22.85
021820,99999,OVERKALIX,66.267,22.833
021830,99999,LULEA-SOL,65.55,22.117
021840,99999,PAHAROVA,66.817,22.333
021850,99999,LULEA-KALLAX,65.55,22.133
021860,99999,KALLAX,65.544,22.122
021880,99999,RODKALLEN,65.317,22.383
021900,99999,KORPILOMBOLO,66.85,23.033
021910,99999,STORON,65.7,23.1
021960,99999,HAPARANDA,65.833,24.15
021970,99999,HAPARANDA,65.817,24.117
021990,99999,YLINENJARVI,66.617,23.467
022000,99999,EDEVIK,63.983,12.867
022020,99999,TORNETRASK LAKE,68.217,19.717
022040,99999,NIKKALUOKTA,67.85,19.033
022060,99999,STORLIEN-STORVALLEN,63.283,12.133
022070,99999,STORLIEN-VISJOVALEN A,63.283,12.117
022090,99999,SYLARNA,63.05,12.283
022100,99999,BLAHAMMAREN,63.183,12.167
022120,99999,,,
022150,99999,ARESKUTAN,63.433,13.083
022160,99999,MATTMAR,63.3,13.883
022170,99999,ARE,63.367,13.167
022180,99999,MORSIL,63.317,13.65
022190,99999,GADDEDE A,64.5,14.217
022210,99999,KORSVATTNET,63.833,13.5
022220,99999,GADDEDE,64.5,14.167
022230,99999,STEMSJON (AUT),63.967,13.717
022240,99999,FOLLINGE-VAGSKALET,63.767,14.433
022260,99999,OSTERSUND,63.2,14.5
022271,99999,KALIX,65.85,23.133
022280,99999,EDEVIK,64.05,12.95
022290,99999,OSTERSUND-SOL,63.2,14.483
022300,99999,GUBBHOGEN,64.217,15.55
022310,99999,FOLLINGE,63.683,14.6
022320,99999,NORRAKER,64.433,15.633
022330,99999,SAXNAS,64.967,15.383
022340,99999,STROMSUND,63.867,15.583
022360,99999,HALLHAXASEN,63.767,15.333
022420,99999,HOTING,64.083,16.233
022430,99999,JUNSELE,63.683,16.95
022440,99999,JUNSELE,63.683,16.95
022450,99999,VILHELMINA,64.583,16.85
022455,99999,LYCKSELE,64.548,18.716
022470,99999,KRANGEDE,63.15,16.167
022480,99999,KRANGEDE,63.167,16.167
022510,99999,STORSJO KAPELL,62.8,13.067
022520,99999,IDVATTNET,64.45,17.083
022540,99999,ASELE,64.167,17.317
022550,99999,FRANSTA,62.5,16.183
022560,99999,RISTRASK,64.733,17.4
022570,99999,FLOTNINGEN,61.85,12.267
022580,99999,VINDEL-BJORKHEDEN,65.817,16.717
022590,99999,KRAMFORS SOLLEFTEA,63.049,17.769
022600,99999,VASTMARKUM,63.133,18.25
022610,99999,LYCKSELE,64.55,18.717
022620,99999,VUOGGATJALME,66.567,16.35
022630,99999,FREDRIKA,64.083,18.367
022640,99999,FREDRIKA,64.083,18.417
022650,99999,HEMLING,63.65,18.55
022660,99999,VILHELMINA (AUTO),64.583,16.85
022670,99999,ORNSKOLDSVIK,63.408,18.99
022690,99999,SKAGSUDDE,63.183,19.017
022700,99999,NORSJO,64.917,19.467
022710,99999,NORSJO,64.933,19.383
022740,99999,VINDELN,64.217,19.717
022760,99999,NORDMALING,63.567,19.5
022780,99999,KRANGEDE (AUTO),63.15,16.167
022790,99999,SKILLINGMARK,59.867,11.967
022800,99999,BLOMSKOG,59.283,12.05
022810,99999,AMAL,59.05,12.7
022820,99999,PETISTRASK,64.567,19.7
022830,99999,UMEA-SOL,63.817,20.233
022840,99999,JARNASKLUBB,63.433,19.683
022860,99999,UMEA,63.792,20.283
022861,99999,SODERHAMN,61.267,17.1
022870,99999,HOLMON,63.8,20.867
022880,99999,HOLMOGADD,63.6,20.75
022890,99999,SYDOSTBROTTEN (LH),63.333,20.183
022900,99999,FURUOGRUND        &,64.917,21.233
022920,99999,HOKMARKSBERGET,64.433,21.283
022930,99999,SKELLEFTEA,64.625,21.077
022960,99999,BJUROKLUBB (LGT-H),64.483,21.583
022970,99999,BJUROKLUBB,64.483,21.583
022980,99999,SVARTEBORG,58.567,11.55
023000,99999,FJALLNAS,62.583,12.217
023020,99999,STORBO,61.833,12.283
023030,99999,FLATRUET,62.733,12.733
023040,99999,FLOTNINGEN,61.85,12.267
023050,99999,NASHUVUD,58.9,13.25
023060,99999,RORBACKSNAS,61.133,12.817
023070,99999,IDRE FJALL,61.883,12.85
023080,99999,TANNAS,62.45,12.667
023100,99999,STORSJO KAPELL,62.8,13.067
023110,99999,HOGFJALLSHOTELLET,61.15,13.117
023120,99999,MALEXANDER,58.067,15.217
023130,99999,VISINGSO,58.1,14.4
023140,99999,LOFSDALEN,62.1,13.25
023141,99999,TYLLINGE,58.017,16.067
023160,99999,SARNA,61.7,13.183
023170,99999,DRAVAGEN,62.1,13.617
023180,99999,TANDADALEN,61.167,13.017
023190,99999,BORTNAN,62.75,13.85
023191,99999,AMBJORNARP,57.417,13.283
023201,99999,TINGHALLA,57.967,13.85
023210,99999,ALVDALEN,61.25,14.033
023220,99999,,,
023230,99999,KLOVSJO,62.533,14.2
023240,99999,SVEG,62.017,14.183
023250,99999,KLOVSJOHOJDEN,62.5,14.15
023260,99999,FREDRIKA,64.083,18.417
023270,99999,SVEG A,62.05,14.4
023280,99999,KRAMFORS (SWE-AFB),63.05,17.767
023290,99999,HAMRA,61.667,15
023300,99999,HUNGE,62.75,15.1
023310,99999,HUNGE,62.75,15.083
023321,99999,FAGERHULT,57.15,15.667
023330,99999,LJUNGBY,56.833,13.917
023340,99999,FINNEBY,62.033,15.467
023360,99999,EDSBYN,61.383,15.833
023370,99999,NORRHOG,62.267,15.667
023380,99999,EDSBYN,61.367,15.717
023420,99999,FRANSTA,62.517,16.183
023430,99999,TORPSHAMMAR,62.5,16.283
023451,99999,SJOBO,55.633,13.7
023460,99999,DELSBO,61.783,16.55
023470,99999,DELSBO,61.833,16.55
023490,99999,SILLRE,62.767,16.733
023540,99999,RASTA,62.433,17.35
023550,99999,KUGGOREN,61.7,17.533
023600,99999,SKELLEFTEA AIRPORT,64.633,21.083
023610,99999,HARNOSAND,62.633,17.95
023640,99999,ORNSKOLDSVIK ARPT,63.4,18.967
023650,99999,SUNDSVALL-HARNOSAND,62.517,17.45
023660,99999,SUNDSVALL HARNOSAND,62.528,17.444
023670,99999,ALNON ISLAND,62.367,17.533
023680,99999,BRAMON,62.217,17.75
023690,99999,,,
023700,99999,GAVLE/SANDVIKEN AFB,60.6,16.95
023710,99999,BORLANGE (SWE-AFB),60.433,15.5
023750,99999,ESKILSTUNA(SWE-AFB&,59.35,16.717
023760,99999,SODERHAMN (SWE-AFB),61.267,17.1
023780,99999,SODERHAMN FLYGPLATS,61.45,17.167
023810,99999,NORRKOPING/KUNGSANG,58.583,16.25
023820,99999,LUNGO,62.65,18.1
023980,99999,KRISTIANSTAD/EVEROD,55.917,14.083
024000,99999,OSTMARK,60.35,12.65
024020,99999,SKILLINGMARK,59.867,11.967
024030,99999,NAVEN,58.7,13.117
024040,99999,ARVIKA,59.667,12.583
024060,99999,BLOMSKOG,59.283,12.05
024070,99999,MALUNG A,60.683,13.7
024080,99999,BLOMSKOG,59.217,12.083
024090,99999,AMAL,59.05,12.7
024100,99999,MALUNG,60.683,13.7
024110,99999,ARVIKA,59.676,12.639
024120,99999,GUSTAVSFORS,60.15,13.8
024130,99999,BRATTMON,60.75,12.767
024150,99999,KARLSTAD SOL,59.367,13.467
024160,99999,,,
024161,99999,MOLKOM,59.617,13.733
024170,99999,PALGRUNDEN,58.75,13.15
024180,99999,KARLSTAD,59.445,13.337
024190,99999,KARLSTAD SOL,59.367,13.467
024200,99999,MOCKFJARD,60.517,14.95
024220,99999,ASPHYTTAN,59.617,14.183
024230,99999,SUNNE,59.867,13.117
024240,99999,STALLDALEN,59.95,14.95
024260,99999,GUSTAVSFORS,60.15,13.8
024280,99999,ATORP,59.1,14.367
024283,99999,OREBRO,59.224,15.038
024284,99999,MORA,60.958,14.511
024285,99999,TORSBY,60.158,12.991
024290,99999,DAGLOSEN,59.667,14.183
024300,99999,BACKA,60.917,15.117
024310,99999,KLOTEN,59.867,15.25
024320,99999,OREBRO,59.233,15.05
024330,99999,FALUN,60.617,15.667
024350,99999,BORLANGE,60.422,15.515
024360,99999,OREBRO/EKEBY (DEAD),59.267,15.333
024373,99999,ARBOGA,59.387,15.924
024390,99999,FELLINGSBRO-FINNAKE,59.533,15.583
024400,99999,AMOT,60.967,16.433
024410,99999,MORA,60.967,14.5
024430,99999,ENKOPING,59.65,17.117
024440,99999,FOLKARNA,60.167,16.317
024460,99999,VASTERAS,59.589,16.634
024480,99999,DUNKER,59.2,16.917
024490,99999,ESKILSTUNA A,59.383,16.45
024500,99999,EGGEGRUND,60.733,17.567
024510,99999,VASTRA BANKEN (AUT),60.883,17.917
024520,99999,KILSBERGEN-SUTTARBODA,59.3,14.9
024530,99999,GAVLE/SANDVIKEN AIR FORCE BAS,60.717,17.167
024540,99999,UTVALNAS,60.75,17.35
024560,99999,FILM,60.233,17.9
024580,99999,UPPSALA,59.897,17.589
024600,99999,ARLANDA,59.652,17.919
024620,99999,UPPSALA UNIVERSITY,59.867,17.633
024640,99999,BROMMA,59.354,17.942
024650,99999,STOCKHOLM/BROMMA UA,59.35,17.967
024680,99999,STORA SPANSBERGET,60.383,15.133
024690,99999,TULLINGE,59.183,17.917
024700,99999,ORSKAR (LGT-H),60.533,18.383
024710,99999,GRUNDKALLEN,60.5,18.867
024720,99999,SKEPPMORA,60.117,15.117
024730,99999,UNDERSTEN (LGT-H),60.283,18.917
024740,99999,SINGO ISLAND,60.167,18.75
024760,99999,FLODA,59.05,16.4
024780,99999,,,
024800,99999,NORRTALJE/VASBY,59.85,18.733
024810,99999,SALA,59.917,16.683
024820,99999,KERSTINBO,60.267,16.983
024830,99999,STOCKHOLM-SOL,59.35,18.067
024840,99999,STOCKHOLM/OBSERVATORIET,59.35,18.067
024850,99999,STOCKHOLM,59.35,18.067
024853,99999,SKAVSTA,58.789,16.912
024860,99999,ADELSO,59.367,17.517
024870,99999,SKARPO A,59.35,18.733
024880,99999,ORSKAR,60.533,18.383
024890,99999,BERGA,59.067,18.117
024900,99999,SVANBERGA,59.833,18.633
024930,99999,SODERARM,59.75,19.417
024940,99999,BJUROKLUBB (LGT-H),64.483,21.583
024950,99999,SVENSKA BJORN (AUT),59.55,20.017
024960,99999,SVENSKA HOGARNA,59.45,19.5
024980,99999,SVENSKA HOGARNA A,59.45,19.5
024990,99999,ALMAGRUNDET,59.15,19.133
025000,99999,NORDKOSTER,58.9,11
025010,99999,VADEROARNA,58.583,11.067
025020,99999,DALS-ED,58.9,12.033
025040,99999,SVARTEBORG,58.567,11.55
025050,99999,MASESKAR,58.1,11.333
025060,99999,,,
025070,99999,HUD,58.667,11.417
025080,99999,MASESKAR (LGT-H),58.1,11.35
025100,99999,LJUNGSKILE,58.217,11.933
025103,99999,TROLLHATTAN VANERSBORG,58.318,12.345
025105,99999,LIDKOPING,58.466,13.174
025110,99999,FLADEN,57.217,11.833
025120,99999,SAVE,57.775,11.87
025130,99999,GOTEBORG,57.717,12
025140,99999,ARVIDSJAUR,65.59,19.282
025150,99999,TORPABRON,58.2,12.15
025160,99999,VINGA,57.633,11.617
025170,99999,TRUBADUREN,57.6,11.633
025180,99999,NIDINGEN,57.3,11.9
025190,99999,RINGHALS (AUT),57.267,12.117
025200,99999,SATENAS,58.426,12.714
025210,99999,BERGARUD,58.6,12.417
025220,99999,,,
025230,99999,ABRAUR,65.983,18.933
025240,99999,MOLLA,57.933,13.067
025260,99999,LANDVETTER,57.663,12.28
025270,99999,GOTEBORG/LANDVETTER,57.667,12.291
025280,99999,TANDADALEN,61.167,13.017
025290,99999,VARBERG           &,57.117,12.267
025300,99999,NASHUVUD,58.9,13.25
025330,99999,SKARA,58.383,13.25
025350,99999,SKOVDE,58.456,13.973
025360,99999,RANGEDALA,57.783,13.167
025361,99999,DALSJOFORS,57.717,13.083
025380,99999,HESTRA,57.4,13.533
025390,99999,ULLARED,57.117,12.783
025400,99999,KROPPEFJALL-GRANAN,58.6,12.2
025410,99999,SNAVLUNDA,58.967,14.9
025420,99999,HALLUM,58.317,13.033
025430,99999,FAGRE,58.65,14.133
025440,99999,KARLSBORG,58.517,14.517
025450,99999,AXSTAL,58.567,14.567
025460,99999,GARDSJO,58.883,14.383
025480,99999,VISINGSO,58.1,14.417
025490,99999,TOMTABACKEN,57.5,14.467
025500,99999,JONKOPING,57.758,14.069
025520,99999,MALEXANDER,58.067,15.233
025530,99999,KYMBO,58.083,13.783
025531,99999,HABO,57.917,14.083
025540,99999,KETTSTAKA,58.717,15.033
025550,99999,NASSJO,57.65,14.7
025560,99999,HAGSHULT,57.292,14.137
025570,99999,HORN,57.883,15.867
025580,99999,KOLMARDEN-STROMSFORS,58.683,16.317
025590,99999,GLADHAMMAR,57.7,16.467
025600,99999,ZINKGRUVAN,58.8,15.117
025610,99999,KVARN,58.65,15.433
025620,99999,MALMEN,58.402,15.526
025625,99999,SAAB,58.406,15.681
025630,99999,HARSTENA,58.25,17.017
025635,99999,ANGELHOLM,56.283,12.833
025640,99999,MALEXANDER,58.067,15.233
025650,99999,HULTSFRED,57.526,15.823
025660,99999,MALILLA,57.4,15.817
025670,99999,LANDSORT,58.75,17.867
025680,99999,ALLGUNNEN,57.067,15.967
025700,99999,NORRKOPING/BRAVALLA,58.617,16.117
025710,99999,KUNGSANGEN,58.586,16.251
025720,99999,NYKOPING/SKAVST AFB,58.783,16.917
025740,99999,NORRKOPING,58.583,16.15
025750,99999,OLANDS NORRA UDDE,57.367,17.1
025760,99999,GLADHAMMAR,57.717,16.467
025800,99999,STABBO (AUT),58.967,18.45
025810,99999,UTO ISLAND,58.95,18.267
025820,99999,LANDSORT (LGT-H),58.75,17.867
025830,99999,GUSTAF DALEN,58.6,17.467
025840,99999,GOTSKA SANDON,58.4,19.2
025860,99999,HARSTENA,58.25,17.017
025870,99999,FAROSUND-AR,57.917,18.95
025880,99999,FARO ISLAND,57.9,19.167
025890,99999,GOTSKA SANDON,58.4,19.2
025900,99999,VISBY,57.663,18.346
025910,99999,VISBY AEROLOGISKA STATION,57.65,18.35
025920,99999,OLANDS NORRA UDDE,57.367,17.1
025931,99999,VASTERGARN,57.433,18.15
025940,99999,STORA KARLSO(LGT-H),57.3,17.967
025950,99999,ROMA,57.55,18.433
025960,99999,HERRVIK,57.417,18.917
025970,99999,KAJAANI,64.283,27.683
025980,99999,OSTERGARNSHOLM,57.433,18.983
025990,99999,NASUDDEN,57.067,18.217
026000,99999,GLOMMEN,56.933,12.367
026020,99999,HALLANDSASEN,56.4,12.95
026030,99999,BROEN,56.867,12.667
026040,99999,HALMSTAD,56.691,12.82
026050,99999,HALLANDS VADERO,56.45,12.55
026060,99999,KULLEN (LGT-H),56.3,12.45
026070,99999,ANGELHOLM/BARKAKRA,56.283,12.083
026090,99999,RYNGE,55.467,13.667
026100,99999,ORJA (AUT),55.867,12.867
026110,99999,HELSINGBORG,56.033,12.767
026140,99999,OSKARSGRUNDET,55.6,12.85
026150,99999,FALSTERBO A,55.383,12.817
026151,99999,KLAGSHAMN (PORT),55.517,12.917
026160,99999,FALSTERBO,55.383,12.817
026170,99999,MAGLARP (AUT),55.383,13.067
026180,99999,TORUP,56.95,13.067
026200,99999,TORUP,56.967,13.067
026220,99999,LJUNGBY,56.85,13.883
026230,99999,HORBY,55.867,13.667
026240,99999,MARKARYD,56.467,13.65
026241,99999,MARKARYD,56.433,13.6
026250,99999,SKILLINGE,55.483,14.317
026260,99999,OSBY,56.367,13.95
026270,99999,LUND-SOL,55.717,13.217
026280,99999,HANO,56.017,14.85
026290,99999,HASTVEDA,56.283,13.933
026291,99999,LINDEROD,55.967,13.85
026300,99999,LJUNGBYHED(SWE-AFB),56.083,13.233
026320,99999,UTKLIPPAN,55.95,15.7
026330,99999,LUND SOL,55.717,13.217
026350,99999,MALMO,55.567,13.067
026360,99999,STURUP,55.53,13.372
026380,99999,SMYGEHUK (LGT-H),55.333,13.35
026390,99999,YSTAD             &,55.433,13.833
026400,99999,VAXJO/URASA(SAFB),56.867,14.8
026410,99999,KRONOBERG,56.929,14.728
026440,99999,OLANDS SODRA UDDE,56.2,16.4
026460,99999,OLANDSBRON LAG,56.667,16.467
026480,99999,VAXJO,56.85,14.833
026500,99999,HANO ISLAND (LGT-H),56.017,14.85
026510,99999,KRISTIANSTAD,55.922,14.086
026520,99999,KRISTIANSTAD,56.017,14.1
026531,99999,RINKABY,55.983,14.3
026540,99999,STENSHUVUD        &,55.667,14.267
026560,99999,SANDHAMMAREN(LGT-H),55.383,14.2
026610,99999,KOSTA (ORREFORS),56.833,15.467
026640,99999,RONNEBY,56.267,15.265
026660,99999,UNGSKAR,56.033,15.8
026670,99999,KARLSKRONA-SODERSTJERNA,56.15,15.583
026700,99999,KALMAR,56.683,16.3
026720,99999,KALMAR,56.686,16.288
026750,99999,,,
026760,99999,OLANDS SODRA UDDE,56.2,16.4
026790,99999,HOBURG A,56.917,18.15
026800,99999,HOBURG,56.917,18.15
026810,99999,VRETA KLOSTER,58.483,15.517
026850,99999,OLANDS SODRA GRUND,56.067,16.683
027010,99999,KILPISJARVI SAANA,69.05,20.85
027020,99999,INARI KAAMANEN,69.133,27.267
027030,99999,ESPOO SEPANKYLA,60.2,24.733
027040,99999,HATTULA LEPAA AWS,61.117,24.317
027050,99999,PELKOSENNIEMI PYHATUNTURI,67.017,27.217
027060,99999,LOHJA PORLA,60.25,24.05
027080,99999,KARVIA ALKKIA,62.183,22.8
027100,99999,VESANTO SONKARI,62.917,26.417
027110,99999,VAASA KESKUSTA,63.1,21.617
027130,99999,HAMEENLINNA LAMMI EVO,61.217,25.133
027140,99999,VAALA PELSO,64.5,26.44
027150,99999,HYRYNSALM KYTOMAKI,64.833,28.233
027160,99999,RANUA KK,65.933,26.517
027170,99999,KITTILA POKKA,68.167,25.767
027180,99999,PUUMALA KK URHEILUKENTTA,61.517,28.183
027190,99999,SODANKYLA KOKKA,67.817,27.75
027200,99999,KITTILA,67.701,24.847
027210,99999,KOKKOLA TANKAR,63.95,22.85
027220,99999,INARI SAARISELKA,68.417,27.417
027230,99999,KITTILA LEVITUNTURI,67.783,24.85
027240,99999,LUMPARLAND LANGNAS HARBOUR,60.117,20.3
027250,99999,HALSUA KANALA PUROLA,63.45,24.45
027260,99999,ENONTEKIO NAKKALA,68.6,23.583
027270,99999,ASIKKALA PULKKILANHARJU,61.267,25.517
027280,99999,TAIPALSAARI KYLANIEMI,61.3,28.183
027290,99999,JAMSA HIMOS,61.883,25.333
027300,99999,SAVOLINNA RUUNAVUORI,61.833,28.85
027310,99999,PUUMALA KK,61.533,28.2
027320,99999,KUOPIO RITONIEMI,62.8,27.9
027330,99999,LAPPEENRANTA KONNUNSUO,61.033,28.567
027340,99999,PARIKKALA KOITSANLAHTI,61.45,29.467
027350,99999,VIRRAT AIJANNEVA,62.333,23.55
027360,99999,JUVA PARTALA,61.9,27.883
027370,99999,TOHOLAMPI LAITALA,63.817,24.167
027380,99999,PYHAJARVI OL OJAKYLA,63.733,25.7
027390,99999,SOTKAMO KUOLANIEMI,64.117,28.333
027410,99999,JOMALA JOMLABY,60.183,19.983
027430,99999,KEMIONSAARI VANO,59.867,22.2
027440,99999,TAMPERE SATAKUNNANKATU,61.5,23.767
027450,99999,SALLA NARUSKA,67.167,29.183
027460,99999,HANKO TULLINIEMI,59.817,22.917
027470,99999,TURKU RAJAKARI,60.383,22.1
027480,99999,VARKAUS,62.171,27.869
027500,99999,HANKO TVARMINNE,59.85,23.25
027510,99999,PORI TAHKOLUOTO HARBOUR,61.633,21.383
027520,99999,KRISTIINANKAUPUNKI LIGHTHOUSE,62.2,21.167
027530,99999,KANKAANPAA NIINISALO AIRFIELD,61.833,22.467
027540,99999,HAMEENLINNA KATINEN,61,24.5
027550,99999,YLIVIESKA AIRFIELD,64.05,24.717
027560,99999,SALO KARKKA,60.367,23.117
027570,99999,RAASEPORI JUSSARO,59.817,23.583
027580,99999,VIHTI MAASOJA,60.417,24.4
027590,99999,PORVOO HARABACKA,60.4,25.6
027600,99999,KUUSAMO RUKA TALVIJARVI,66.167,29.133
027610,99999,RAUMA KYLMAPIHLAJA,61.15,21.3
027620,99999,KOKEMAKI PEIPOHJA HYRKOLA,61.267,22.25
027630,99999,TAMPERE HARMALA,61.467,23.75
027640,99999,KITTILA LOMPOLONVUOMA,68,24.217
027650,99999,LUHANKA JUDINSALO,61.7,25.5
027660,99999,ILOMANTSI POTSONVAARA,63.15,31.05
027670,99999,HAMEENLINNA LAMMI PAPPILA,61.05,25.05
027680,99999,HEINOLA ASEMANTAUS,61.2,26.05
027690,99999,KAUHAJOKI KUJA-KOKKO,62.417,22.183
027700,99999,JUUPAJOKI HYYTIALA,61.85,24.283
027710,99999,JOUTSA LEIVONMAKI SAVENAHO,61.883,26.1
027720,99999,RANTASALMI RUKKASLUOTO,62.067,28.567
027730,99999,TURKU ARTUKAINEN,60.45,22.183
027770,99999,SALO KIIKALA AIRFIELD,60.467,23.65
027780,99999,SAVONLINNA PUNKAHARJU,61.8,29.317
027800,99999,KORSNAS BREDSKARET,62.933,21.183
027810,99999,STROMMINGSBADN,62.983,20.733
027830,99999,LAMMI ISO-EVO,61.183,25.033
027870,99999,ALAJARVI MOKSY,63.083,24.267
027880,99999,KUOPIO MAANINKA,63.15,27.317
027890,99999,RAUTAVAARA YLA-LUOSTA,63.383,28.667
027900,99999,KUMLINGE KK,60.25,20.75
027910,99999,JUUKA NIEMELA,63.233,29.233
027930,99999,LIPERI TUISKAVANLUOTO,62.55,29.667
027940,99999,KIRKKONUMMI MAKILUOTO,59.917,24.35
027950,99999,HELSINKI HARMAJA,60.1,24.983
027960,99999,LIEKSA LAMPELA,63.317,30.05
027970,99999,HAAPAVEST MUSTIKKAMAKI,64.15,25.417
027980,99999,VALTIMO KK,63.667,28.833
027990,99999,KUHMO KALLIOJOKI,64.3,30.167
028000,99999,RAAHE NAHKIAINEN,64.617,23.9
028010,99999,ENONTEKIO KILPISJARVI,69.05,20.783
028030,99999,SIIKAJOKI REVONLAHTI,64.683,25.083
028040,99999,TAIVALKOSKI KK URHEILUTIE,65.583,28.217
028050,99999,UTSJOKI KEVO,69.75,27
028060,99999,KAAMANEN,69.1,27.217
028070,99999,IVALO,68.607,27.405
028075,99999,ENONTEKIO,68.363,23.424
028080,99999,INARI SEVETTIJARVI,69.583,28.85
028110,99999,KUUSAMO KIUTAKONGAS,66.367,29.317
028120,99999,YLITORNIO MELTOSJARVI,66.533,24.65
028130,99999,ROVANIEMI APUKKA,66.583,26.017
028140,99999,KEMIJARVI AIRFIELD,66.717,27.167
028150,99999,SAVUKOSKI KK,67.283,28.183
028160,99999,SODANKYLA VUOTSO,68.083,27.183
028170,99999,SAARISELKA KAUNISPAA,68.433,27.45
028180,99999,INARI RAJAJOOSEPPI,68.483,28.3
028190,99999,SALLA VARRIOTUNTURI,67.75,29.617
028200,99999,MUONIO LAUKUKERO,68.067,24.033
028210,99999,MUONIO SAMMALTUNTURI,67.967,24.117
028230,99999,MUONIO ALAMUONIO,67.967,23.683
028234,99999,KITTILA,67.7,24.833
028240,99999,KITTILA KENTTAROVA,67.983,24.25
028250,99999,UTSJOKI NUORGAM,70.083,27.9
028270,99999,INARI VAYLA,69.067,27.5
028280,99999,KAARINA YLTOINEN,60.383,22.55
028290,99999,HYVINKAA HYVINKAANKYLA,60.6,24.8
028300,99999,KOUVOLA ANJALA,60.7,26.817
028310,99999,VIROLAHTI KOIVUNIEMI,60.533,27.667
028320,99999,TOHMAJARVI KEMIE,62.233,30.35
028330,99999,SEINAJOKI PELMAA,62.933,22.483
028340,99999,VIEREMA KAARAKKALA,63.833,27.217
028350,99999,INARI NELLIM,68.85,28.3
028360,99999,SODANKYLA,67.395,26.619
028440,99999,PELLO CENTRE,66.767,23.967
028450,99999,ROVANIEMI,66.565,25.83
028470,99999,ROVANIEMI RAUTATIEASEMA,66.5,25.717
028480,99999,SALLA,66.817,28.667
028490,99999,SALLA KK MYLLYTIE,66.833,28.667
028500,99999,VARKAUS KOLSUANNIEMI,62.317,27.9
028510,99999,OULU OULUNSALO PELLONPAA,64.933,25.367
028520,99999,KOKKOLA HOLLIHAKA,63.85,23.117
028570,99999,INARI ANGELI LINTUPUOLISELKA,68.9,25.733
028580,99999,INARI KIRAKKAJARVI,69.583,28.9
028590,99999,PUOLANKA PALJAKKA,64.667,28.05
028600,99999,KITTILA KK,67.65,24.9
028620,99999,KEMI AJOS,65.667,24.517
028630,99999,KEMI I LIGHTHOUSE,65.383,24.1
028640,99999,KEMI TORNIO,65.782,24.599
028650,99999,KUIVANIEMI,65.517,25.267
028660,99999,PUDASJARVI AIRFIELD,65.417,26.967
028670,99999,PUDASJARVI,65.367,27.017
028680,99999,KUUSAMO RUKATUNTURI,66.167,29.15
028690,99999,KUUSAMO,65.988,29.239
028720,99999,RAAHE LAPALUOTO HARBOUR,64.667,24.4
028730,99999,HAILUOTO MARJANIEMI,65.033,24.567
028740,99999,HAILUOTO ISLAND,65.033,24.8
028744,99999,YLIVIESKA,64.061,24.716
028750,99999,OULU,64.93,25.355
028760,99999,OULU VIHREASAARI HARBOUR,65,25.4
028790,99999,SUOMUSSALMI,64.9,29.017
028800,99999,TORNIO TORPPI,65.85,24.167
028810,99999,RANUA AIRFIELD,65.983,26.367
028820,99999,KITTILA MATOROVA,68,24.233
028830,99999,KAJAANI PETAISENNISKA,64.217,27.75
028880,99999,INARI SEITALAASSA,69.05,27.75
028890,99999,SUOMUSSALMI PESIO,64.933,28.75
028900,99999,UTSJOKI KEVO KEVOJARVI,69.75,27.017
028970,99999,KAJAANI,64.285,27.692
029010,99999,MASSKAR,63.733,22.583
029020,99999,ULKOKALLA,64.333,23.45
029030,99999,KRUUNUPYY,63.721,23.143
029050,99999,NIVALA,63.917,24.967
029060,99999,KEMIONSAARI KEMIO,60.167,22.75
029070,99999,KALAJOKI ULKOKALLA,64.333,23.45
029100,99999,MUSTASAARI VALASSAARET,63.433,21.067
029110,99999,VAASA,63.051,21.762
029120,99999,VAASA,63.1,21.583
029130,99999,KAUHAVA,63.127,23.051
029135,99999,KRUUNUPYY,63.717,23.133
029140,99999,KAUHAVA KK UUNIMAANTIE,63.117,23.05
029150,99999,VIITASAARI,63.083,25.867
029170,99999,KUOPIO,63.007,27.798
029190,99999,LAPPEENRANTA HIEKKAPAKKA,61.2,28.467
029200,99999,PIETARSAARI KALLAN,63.75,22.517
029210,99999,MOIKIPAA,62.883,21.1
029240,99999,AHTARI MYLLYMAKI,62.533,24.217
029244,99999,ILMAJOKI,62.7,22.833
029245,99999,SEINAJOKI,62.692,22.832
029260,99999,PORI RAILWAY STATION,61.483,21.783
029270,99999,MULTIA KARHILA,62.517,24.8
029280,99999,JOENSUU LINNUNLAHTI,62.6,29.717
029290,99999,JOENSUU,62.663,29.608
029310,99999,KASKINEN SALGRUND,62.333,21.183
029340,99999,HELSINKI RAILWAY STATION SQ,60.167,24.95
029350,99999,JYVASKYLA,62.399,25.678
029370,99999,KOKEMAKI TULKKILA,61.25,22.35
029390,99999,ILOMANTSI MEKRIJARVI,62.767,30.983
029420,99999,KANKAANPAA NIINISALO PUOLVOIM,61.833,22.467
029430,99999,TAMPERE SIILINKARI,61.517,23.75
029440,99999,TAMPERE PIRKKALA,61.414,23.604
029450,99999,HALLI,61.856,24.787
029460,99999,JAMSA HALLI LENTOASEMANTIE,61.867,24.817
029470,99999,MIKKELI,61.687,27.202
029474,99999,VARKAUS,62.167,27.867
029480,99999,SAVONLINNA,61.943,28.945
029490,99999,SOMERO SALKOLA,60.65,23.8
029500,99999,PARAINEN FAGERHOLM,60.117,21.7
029510,99999,,,
029520,99999,PORI,61.462,21.8
029530,99999,HAMEENLINNA,60.983,24.45
029550,99999,KUOPIO SAVILAHTI,62.9,27.633
029560,99999,KOUVOLA UTTI LENTOPORTINTIE,60.883,26.933
029570,99999,VAASA KLEMETTILA,63.1,21.639
029580,99999,LAPPEENRANTA,61.045,28.144
029590,99999,LAPPEENRANTA LEPOLA,61.05,28.217
029600,99999,RAIJALA,61.183,22.617
029610,99999,KUUSKAJASKARI,61.133,21.367
029630,99999,JOKIOINEN,60.817,23.5
029640,99999,KUSTAVI ISOKARI,60.717,21.033
029650,99999,LAHTI LAUNE,60.967,25.633
029660,99999,UTTI,60.896,26.938
029670,99999,KOTKA HAAPASAARI,60.283,27.183
029680,99999,KOTKA KIRKONMAA,60.383,27.05
029700,99999,MARIEHAMN,60.122,19.898
029710,99999,JOMALA,60.15,19.867
029720,99999,TURKU,60.514,22.263
029730,99999,SUOMUSJARVI,60.4,23.767
029740,99999,HELSINKI VANTAA,60.317,24.963
029750,99999,HELSINKI MALMI,60.255,25.043
029760,99999,KOTKA RANKKI,60.383,26.967
029780,99999,HELSINKI KAISANIEMI,60.183,24.95
029790,99999,KOKAR BOGSKAR,59.5,20.35
029800,99999,LEMLAND NYHAMN,59.967,19.95
029810,99999,PARAINEN UTO,59.783,21.367
029820,99999,HANKO RUSSARO,59.767,22.95
029830,99999,NURMIJARVI GEOPHSICAL OBSERVA,60.517,24.65
029840,99999,INKOO BAGASKAR,59.933,24.017
029851,99999,ESPOO TAPIOLA,60.183,24.783
029860,99999,KATAJALUOTO,60.1,24.917
029870,99999,PORVOO KALLBADAGRUND,59.983,25.6
029880,99999,ISOSAARI,60.1,25.067
029890,99999,HELSINKI LIGHTHOUSE,59.95,24.933
029900,99999,KUMLINGE ISLAND,60.3,20.75
029910,99999,PORVOO EMASALO,60.2,25.633
029920,99999,LOVIISA ORRENGRUND,60.283,26.45
029930,99999,HAMMARLAND MARKET,60.3,19.133
029960,99999,RYMATTYLA RAULA,60.4,21.95
029980,99999,HELSINKI KUMPULA,60.2,24.967
030010,99999,MUCKLE FLUGGA,60.85,-0.883
030020,99999,BALTASOUND NO.2,60.75,-0.85
030030,99999,SUMBURGH,59.879,-1.296
030031,99999,,,
030040,99999,COLLAFIRTH HILL,60.533,-1.383
030050,99999,LERWICK,60.133,-1.183
030060,99999,SELLA NESS,60.45,-1.267
030064,99999,SCATSTA,60.433,-1.296
030065,99999,UNST ISLAND,60.733,-0.817
030070,99999,MUCKLE HOLM,60.583,-1.267
030080,99999,FAIR ISLE,59.533,-1.633
030090,99999,NORTH RONALDSAY ISL,59.367,-2.417
030100,99999,SULE SKERRY,59.083,-4.4
030110,99999,NORTH RONA ISLAND,59.117,-5.817
030130,99999,FOULA,60.15,-2.067
030140,99999,FOULA NO2,60.117,-2.067
030170,99999,KIRKWALL,58.958,-2.905
030180,99999,WOODVALE,53.582,-3.056
030200,99999,SAINT KILDA ISLAND,57.817,-8.567
030210,99999,LOCHBOISDALE,57.15,-7.317
030220,99999,BENBECULA,57.481,-7.363
030230,99999,SOUTH UIST RANGE,57.333,-7.367
030240,99999,HYSKEIR (LGT-H),56.967,-6.683
030250,99999,BUTT OF LEWIS (LH),58.517,-6.267
030260,99999,STORNOWAY,58.216,-6.331
030270,99999,WATERSTEIN,57.433,-6.767
030280,99999,NEIST POINT (LGT-H),57.417,-6.783
030290,99999,ARDNAMURCHAN(LGT-H),56.733,-6.217
030300,99999,SAASAIG,57.1,-5.833
030310,99999,LOCH GLASCARNOCH,57.717,-4.883
030320,99999,RUBH RE,57.867,-5.817
030330,99999,DIABAIG,57.583,-5.7
030340,99999,AULTBEA NO2,57.867,-5.633
030350,99999,BARRA ISLAND,57.033,-7.45
030360,99999,BROADFORD,57.25,-5.867
030370,99999,SKYE/LUSA,57.25,-5.8
030380,99999,FORT WILLIAM,56.833,-5.1
030390,99999,BEALACH NA BA NO2,57.417,-5.683
030400,99999,KILMORY,56.767,-6.05
030410,99999,AONACH MOR,56.817,-4.967
030430,99999,LOCHCARRON,57.4,-5.483
030440,99999,ALTNAHARRA NO2,58.283,-4.433
030460,99999,LOCHLUICHART,57.617,-4.817
030470,99999,TULLOCH BRIDGE,56.867,-4.7
030490,99999,CAPE WRATH (LGT-H),58.633,-5
030500,99999,FORT AUGUSTUS,57.133,-4.717
030520,99999,SHIN-IN-SUTHERLAND,57.95,-4.417
030521,99999,SHIN,57.95,-4.417
030530,99999,NAIRN,57.6,-3.867
030540,99999,STRATHY PT. (LGT-H),58.6,-4.017
030550,99999,RACKWICK,58.867,-3.383
030560,99999,DALWHINNIE,56.933,-4.233
030570,99999,FOYERS,57.267,-4.483
030580,99999,INVERGORDON HARBOUR,57.683,-4.167
030590,99999,INVERNESS,57.543,-4.048
030600,99999,TUMMEL BRIDGE,56.7,-4.017
030610,99999,TARBAT NESS (CAPE),57.867,-3.767
030620,99999,TAIN RANGE (SAWS),57.817,-3.967
030630,99999,AVIEMORE,57.2,-3.833
030640,99999,GLENMORE LODGE,57.167,-3.7
030650,99999,CAIRNGORM SUMMIT,57.117,-3.633
030660,99999,KINLOSS,57.649,-3.561
030670,99999,FEALAR LODGE,56.9,-3.633
030680,99999,LOSSIEMOUTH,57.705,-3.339
030700,99999,GLENLIVET,57.35,-3.35
030710,99999,GRANTOWN-ON-SPEY,57.333,-3.633
030720,99999,CAIRNWELL,56.883,-3.417
030730,99999,,,
030740,99999,SCRABSTER HARBOUR,58.617,-3.55
030750,99999,WICK,58.459,-3.093
030755,99999,MERRYFIELD ARPT / RNAS,50.963,-2.936
030760,99999,TEMP FOR 03075,58.45,-3.1
030770,99999,LYBSTER,58.317,-3.283
030800,99999,ABOYNE NO2,57.083,-2.833
030820,99999,SPITTAL OF GLENSHEE,56.767,-3.383
030840,99999,KIRKMICHAEL,56.717,-3.517
030850,99999,INCHMARLO,57.067,-2.533
030880,99999,INVERBERVIE NO.2,56.85,-2.267
030890,99999,USAN,56.683,-2.45
030900,99999,WINDY HEAD,57.633,-2.233
030910,99999,DYCE,57.202,-2.198
030920,99999,PETERHEAD HARBOUR,57.5,-1.767
030930,99999,FRASERBURGH (LGT-H),57.683,-2
030940,99999,ROSEHEARTY,57.7,-2.117
030960,99999,BRIDGE OF CLAY,56.65,-3.383
030970,99999,ENOCHDHU,56.75,-6.883
031000,99999,TIREE,56.499,-6.869
031020,99999,ORSAY (LGT-H),55.667,-6.5
031050,99999,ISLAY: PORT ELLEN,55.683,-6.25
031051,99999,ISLAY (PORT ELLEN),55.683,-6.25
031053,99999,ISLAY (PORT ELLEN),55.683,-6.25
031060,99999,RHUVAAL,55.917,-6.133
031070,99999,DHU LOCH,55.817,-5.1
031110,99999,MACHRIHANISH,55.433,-5.7
031140,99999,OBAN,56.417,-5.467
031150,99999,,,
031160,99999,DALMALLY  STRONMILCHAN,56.4,-5
031180,99999,CORSEWALL PT. (LH),55,-5.15
031190,99999,PORTPATRICK,54.85,-5.133
031200,99999,LOCHRANZA NO3,55.7,-5.3
031210,99999,KILDONAN,55.433,-5.1
031220,99999,PLADDA (LGT-H),55.417,-5.117
031290,99999,ARDROSSAN,55.65,-4.817
031300,99999,WEST FREUGH,54.85,-4.95
031310,99999,MULL OF GALLOWAY LH,54.633,-4.85
031320,99999,WEST FREUGH (AUT),54.85,-4.95
031330,99999,SLOY,56.25,-4.717
031340,99999,GLASGOW BISHOPTON,55.9,-4.533
031350,99999,PRESTWICK,55.509,-4.587
031360,99999,PRESTWICK RNAS,55.517,-4.583
031370,99999,WHITHORN,54.7,-4.417
031380,99999,GREENOCK MRCC,55.967,-4.8
031390,99999,SAUGHALL,55.6,-4.217
031394,99999,CAMPBELTOWN,55.437,-5.686
031400,99999,GLASGOW,55.872,-4.433
031401,99999,MAGNUS OIL PLATFORM,61.617,1.3
031402,99999,BRUCE OIL PLATFORM,59.733,1.667
031403,99999,HARDING OIL PLATFORM,59.267,1.5
031404,99999,MILLER OIL PLATFORM,58.717,1.4
031405,99999,ANDREW OIL PLATFORM,58.033,1.4
031406,99999,MUNGO OIL PLATFORM,57.367,1.983
031407,99999,MARNOCK OIL PLATFORM,57.283,1.65
031408,99999,RAVENSPURN N OIL PLATFORM,54.017,1.1
031409,99999,WEST SOLE OIL PLATFORM,53.7,1.133
031411,99999,SCHIEHALLION FPSO OIL PLATFOR,60.35,-4.05
031412,99999,CLAIR OIL PLATFORM,60.683,-2.533
031413,99999,CLEETON OIL PLATFORM,54.033,0.717
031430,99999,KILLIN,56.483,-4.35
031440,99999,STRATHALLEN AIRFIELD,56.317,-3.733
031450,99999,GLASGOW WEA. CEN.,55.867,-4.267
031470,99999,GLENLEE,55.1,-4.183
031480,99999,GLEN OGLE,56.417,-4.317
031490,99999,BECAME STN 031491,56.067,-4.05
031500,99999,CRAWFORDJOHN,55.5,-3.767
031520,99999,SALSBURGH,55.867,-3.867
031530,99999,DUNDRENNAN,54.8,-4
031540,99999,DUMFRIES/DRUNGANS,55.05,-3.65
031550,99999,DRUMALBIN,55.617,-3.733
031560,99999,PITREAVIE,56.05,-3.417
031570,99999,PERTH/SCONE,56.433,-3.367
031571,99999,PERTH/SCONE,56.433,-3.367
031573,99999,PERTH/SCONE,56.45,-3.367
031580,99999,CHARTERHALL,55.7,-2.383
031590,99999,INCHKEITH,56.033,-3.133
031600,99999,EDINBURGH,55.95,-3.373
031610,99999,EDDLESTON,55.7,-3.217
031620,99999,ESKDALEMUIR,55.317,-3.2
031634,99999,DUNDEE,56.452,-3.026
031640,99999,BIGGAR,55.6,-3.55
031650,99999,SPADEADAM,55.05,-2.55
031660,99999,EDINBURGH GOGARBANK,55.933,-3.35
031670,99999,BASS ROCK (LGT-H),56.083,-2.633
031680,99999,GALASHIELS,55.6,-2.9
031700,99999,SHANWELL,56.433,-2.867
031710,99999,LEUCHARS,56.373,-2.868
031740,99999,FIFE NESS,56.3,-2.583
031750,99999,,,
031760,99999,CARTERHOUSE,55.367,-2.517
031770,99999,BELL ROCK (LGT-H),56.433,-2.4
031850,99999,ST. ABB'S HEAD (LH),55.917,-2.133
031900,99999,SEAHOUSES,55.583,-1.65
032040,99999,ISLE OF MAN,54.083,-4.624
032050,99999,CALF OF MAN (AUX),54.05,-4.833
032070,99999,SNAEFELL-ISLE,54.267,-4.467
032080,99999,POINT OF AYRE (LH),54.417,-4.367
032090,99999,DRUMBURGH,54.933,-3.15
032100,99999,ST BEES HEAD NO.2,54.517,-3.6
032110,99999,ST. BEES HEAD (LH),54.517,-3.633
032120,99999,KESWICK,54.617,-3.167
032130,99999,ESKMEALS,54.317,-3.4
032140,99999,WALNEY ISLAND,54.131,-3.264
032145,99999,WARTON,53.745,-2.883
032150,99999,ASPATRIA,54.767,-3.317
032160,99999,BROMFIELD,54.8,-3.283
032200,99999,CARLISLE,54.933,-2.967
032210,99999,CAUSEWAY FOOT,54.583,-3.083
032220,99999,CARLISLE,54.938,-2.809
032230,99999,RYDAL,54.45,-2.983
032240,99999,SPADEADAM NO2,55.05,-2.55
032250,99999,SHAP,54.5,-2.683
032260,99999,WARCOP RANGE,54.567,-2.417
032270,99999,GREAT DUN FELL NO2,54.683,-2.45
032280,99999,WHINS POND (AUX),54.667,-2.7
032290,99999,GREAT DUN FELL,54.7,-2.45
032300,99999,REDESDALE CAMP,55.283,-2.283
032330,99999,RIBBLEHEAD,54.217,-2.333
032350,99999,BOLTSHOPE PARK,54.817,-2.083
032370,99999,FOREST,54.65,-2.2
032380,99999,ALBEMARLE,55.017,-1.867
032400,99999,BOULMER,55.424,-1.603
032410,99999,LONG FRAMLINGTON,55.3,-1.8
032420,99999,BURNHOPE,54.817,-1.717
032431,99999,NEWCASTLE/WOOLSING.,55.033,-1.683
032433,99999,NEWCASTLE,55.038,-1.692
032440,99999,,,
032450,99999,NEWCASTLE WX CENTRE,54.967,-1.617
032460,99999,NEWCASTLE WEATHER CENTRE,54.983,-1.6
032490,99999,SUNDERLAND UNIVERSITY,54.983,-1.633
032570,99999,LEEMING,54.292,-1.535
032610,99999,DISHFORTH,54.137,-1.42
032620,99999,TYNEMOUTH,55.017,-1.417
032635,99999,DURHAM TEES VALLEY AIRPORT,54.509,-1.429
032640,99999,,,
032643,99999,TOPCLIFFE,54.206,-1.382
032650,99999,TOPCLIFFE,54.2,-1.383
032660,99999,LINTON ON OUSE,54.049,-1.253
032690,99999,TEESMOUTH,54.65,-1.133
032700,99999,,,
032710,99999,TEESMOUTH (AUX),54.62,-1.13
032750,99999,LOFTUS,54.567,-0.867
032800,99999,CATTERICK,54.367,-1.617
032810,99999,FYLINGDALES,54.367,-0.667
032820,99999,WHITBY,54.483,-0.6
032910,99999,FLAMBOROUGH HEAD,54.117,-0.083
032920,99999,BRIDLINGTON MRSC,54.1,-0.167
032930,99999,COWDEN,53.85,-0.1
033010,99999,MONA,53.267,-4.367
033020,99999,VALLEY,53.248,-4.535
033030,99999,AMLWCH,53.383,-4.367
033050,99999,CAPEL CURIG NO3,53.1,-3.933
033080,99999,SNOWDON SUMMIT,53.067,-4.083
033090,99999,YSPYTTY IFAN,53.033,-3.7
033110,99999,HOLYHEAD,53.317,-4.617
033120,99999,RHYL,53.333,-3.5
033130,99999,RHYL NO2,53.25,-3.5
033140,99999,MOEL-Y-CRIO,53.217,-3.217
033150,99999,FORMBY (DEAD),53.55,-3.1
033160,99999,CROSBY,53.5,-3.067
033170,99999,WOODVALE(RAF),52.567,-3.05
033180,99999,BLACKPOOL,53.772,-3.029
033190,99999,FLEETWOOD,53.917,-3.033
033210,99999,HAWARDEN,53.178,-2.978
033220,99999,AUGHTON,53.55,-2.917
033230,99999,LIVERPOOL AIRPORT,53.333,-2.85
033233,99999,LIVERPOOL,53.334,-2.85
033290,99999,WINTER HILL,53.617,-2.517
033300,99999,LEEK THORNCLIFFE,53.133,-1.983
033340,99999,MANCHESTER,53.354,-2.275
033350,99999,MANCHESTER/BARTON,53.483,-2.25
033380,99999,CELLARHEAD,53.033,-2.083
033390,99999,SKIPTON NO2,53.967,-2.033
033400,99999,HOLME MOSS (AUT),53.533,-1.883
033410,99999,FLASH-IN-STAFFORD,53.2,-1.967
033420,99999,HOLME MOSS,53.533,-1.867
033430,99999,HUDDERSFIELD/OAKES,53.65,-1.833
033440,99999,BINGLEY NO.2,53.817,-1.867
033450,99999,EMLEY MOOR,53.617,-1.667
033460,99999,EMLEY MOOR NO 2,53.6,-1.667
033461,99999,,,
033463,99999,LEEDS BRADFORD,53.866,-1.661
033464,99999,PENZANCE HELIPORT,50.12,-5.52
033465,99999,NEWQUAY CORNWALL,50.433,-4.983
033470,99999,LEEDS WEATHER CTR,53.8,-1.55
033475,99999,SHEFFIELD CITY,53.394,-1.388
033480,99999,WOODFORD,53.333,-2.15
033510,99999,ROSTHERNE NO 2,53.367,-2.383
033540,99999,NOTTINGHAM/WATNALL,53,-1.25
033550,99999,CHURCH FENTON,53.834,-1.196
033600,99999,FINNINGLEY(RAF),53.483,-1
033631,99999,SYERSTON,53.017,-0.917
033700,99999,HEMSWELL,53.4,-0.567
033723,99999,BARKSTON HEATH,52.962,-0.562
033730,99999,SCAMPTON,53.308,-0.551
033735,99999,HUMBERSIDE,53.574,-0.351
033770,99999,WADDINGTON,53.166,-0.524
033790,99999,CRANWELL,53.03,-0.483
033820,99999,LECONFIELD,53.867,-0.433
033830,99999,LECONFIELD,53.883,-0.433
033840,99999,LECONFIELD (AUT),53.867,-0.433
033850,99999,DONNA NOOK,53.467,0.067
033851,99999,DONNA NOOK RAF,53.475,0.152
033860,99999,NORTH COATES (AUT),53.5,0.067
033870,99999,EASINGTON,53.667,0.117
033880,99999,BINBROOK(RAF),53.45,-0.2
033900,99999,INNER DOWSING (LH),53.333,0.567
033910,99999,CONINGSBY,53.093,-0.166
033920,99999,WAINFLEET (AUT),53.083,0.267
033930,99999,DONNA NOOK (AUT),53.383,0.217
033940,99999,GIBRALTAR POINT,53.1,0.317
033950,99999,,,
033960,99999,SPURN HEAD (POINT),53.617,0.15
033961,99999,SPURN HEAD (POINT),53.567,0.117
033980,99999,HUMBER (LGT-VSL),53.617,0.367
033990,99999,DOWSING (LGT-VSL),53.567,0.833
034000,99999,BARDSEY ISL (LGT-H),52.75,-4.8
034010,99999,PORTHDYNLLAEN,52.95,-4.567
034020,99999,MYNYDD RHIW,52.817,-4.633
034030,99999,NANTMOR,53,-4.083
034040,99999,ABERDOVEY,52.55,-4.067
034050,99999,ABERDARON,52.783,-4.733
034053,99999,LLANBEDR,52.812,-4.124
034054,99999,DONCASTER SHEFFIELD,53.475,-1.004
034055,99999,NORTH DENES AIRPORT,52.65,-1.783
034060,99999,TRAWSFYNYDD,52.933,-3.933
034070,99999,LLANBEDR,52.8,-4.117
034080,99999,CYNWYD,52.95,-3.417
034090,99999,BALA,52.9,-3.583
034100,99999,LAKE VYRNWY NO2,52.75,-3.467
034110,99999,ABERHOSAN,52.567,-3.717
034140,99999,SHAWBURY,52.798,-2.668
034145,99999,COSFORD,52.64,-2.306
034150,99999,SHAWBURY (SAWS),52.8,-2.683
034160,99999,BOGUS ENGLAND,,
034180,99999,TERNHILL(RAF),52.867,-2.533
034185,99999,NOTTINGHAM EAST MIDLANDS,52.831,-1.328
034530,99999,COTTESMORE,52.736,-0.649
034540,99999,TEMP FOR 03453,52.733,-0.667
034610,99999,WITTERING (AUT),52.617,-0.483
034620,99999,WITTERING,52.613,-0.476
034690,99999,HOLBEACH (AUT),52.867,0.15
034700,99999,HOLBEACH RAF RANGE,52.883,0.183
034701,99999,HOLBEACH RAF RANGE,52.85,0.167
034705,99999,,,
034820,99999,MARHAM,52.648,0.551
034850,99999,WEST RAYNHAM,52.783,0.733
034870,99999,SCULTHORPE (AF MET),52.85,0.767
034873,99999,SCULTHORPE (AF MET),52.85,0.767
034875,99999,HIGH WICOMBE(USAF),51.62,-0.77
034880,99999,WEYBOURNE,52.95,1.133
034920,99999,NORWICH,52.676,1.283
034925,99999,NORWICH WEA CNTRE &,52.683,1.283
034930,99999,CROMER (LGT-H),52.917,1.317
034940,99999,CROMER,52.933,1.317
034950,99999,COLTISHALL,52.755,1.358
034960,99999,HEMSBY,52.683,1.683
034970,99999,GORLESTON,52.583,1.717
034980,99999,NEWARP (LGT-VSL),52.8,1.833
034990,99999,BECAME STN 034991,52.717,2.3
035010,99999,CAPEL DEWI,52.417,-4
035020,99999,ABERPORTH,52.133,-4.567
035030,99999,TRAWSGOED,52.35,-3.95
035031,99999,ESGAIRWEN,52.083,-4.017
035040,99999,CENARTH-IN-RADNOR,52.383,-3.533
035050,99999,SAINT HARMON,52.333,-3.483
035051,99999,CENARTH MILL,52.383,-3.5
035060,99999,,,
035070,99999,SENNYBRIDGE NO2,52.067,-3.617
035077,99999,NORWICH,52.683,1.283
035110,99999,NEWCASTLE ON CLUN,52.433,-3.117
035120,99999,,,
035121,99999,LYONSHALL,52.183,-2.983
035200,99999,SHOBDON AIRFIELD,52.25,-2.883
035210,99999,MADLEY,52.033,-2.85
035220,99999,HEREFORD/CREDENHILL,52.083,-2.8
035250,99999,MALVERN,52.083,-2.3
035260,99999,BARBOURNE,52.2,-2.217
035270,99999,GREAT MALVERN,52.117,-2.3
035280,99999,PERSHORE,52.133,-2.033
035290,99999,PERSHORE,52.15,-2.033
035310,99999,BIRMINGHAM/EDBASTON,52.483,-1.933
035340,99999,BIRMINGHAM,52.454,-1.748
035350,99999,COLESHILL,52.483,-1.683
035360,99999,HINTS/LICHFIELD MST,52.633,-0.567
035410,99999,COVENTRY AIRPORT,52.367,-1.483
035411,99999,,,
035413,99999,COVENTRY,52.37,-1.48
035420,99999,RAF HETHEL,52.567,1.167
035430,99999,RAF RIDGEWELL,52.05,0.55
035440,99999,CHURCH LAWFORD,52.367,-1.333
035450,99999,RAF GREAT ASHFIELD,52.25,0.95
035460,99999,RAF TIBENHAM,52.45,1.15
035471,99999,BITTESWELL,52.45,-1.25
035480,99999,RAF SNETTERTON HEATH,52.467,0.95
035490,99999,RAF OLD BUCKENHAM,52.5,1.067
035500,99999,RAF BODNEY,52.567,0.717
035510,99999,RAF HORHAM,52.317,1.233
035520,99999,RAF DUXFORD,52.1,0.133
035530,99999,RAF DEENETHORPE,52.5,-0.583
035540,99999,KINGS CLIFF RAF,52.567,-0.483
035560,99999,,,
035570,99999,CRANFIELD,52.067,-0.617
035571,99999,CRANFIELD,52.067,-0.617
035573,99999,CRANFIELD,52.072,-0.617
035580,99999,BEDFORD AIRPORT,52.217,-0.483
035590,99999,CARDINGTON,52.1,-0.417
035600,99999,BEDFORD,52.217,-0.483
035610,99999,RAF BURY ST EDMUNDS,52.25,0.767
035620,99999,ALCONBURY RAF,52.367,-0.217
035621,99999,ALCONBURY RAF,52.367,-0.217
035623,99999,ALCONBURY RAF     &,52.367,-0.217
035630,99999,THORPE ABBOTTS RAF,52.383,1.217
035660,99999,WYTON,52.357,-0.108
035661,99999,ISLAY,55.682,-6.257
035671,99999,BASSINGBOURN,52.1,-0.05
035710,99999,CAMBRIDGE,52.2,0.183
035715,99999,CAMBRIDGE,52.205,0.175
035770,35046,MILDENHALL RAF,52.367,0.483
035770,99999,MILDENHALL,52.362,0.486
035771,99999,MILDENHALL RAF    &,52.367,0.483
035773,99999,MILDENHALL RAF    &,52.367,0.483
035780,99999,,,
035810,99999,FELTWELL,52.483,0.517
035830,35034,LAKENHEATH RAF,52.417,0.567
035830,99999,LAKENHEATH,52.409,0.561
035831,99999,LAKENHEATH RAF,52.4,0.567
035833,99999,LAKENHEATH RAF,52.4,0.567
035860,99999,HONINGTON,52.333,0.767
035881,99999,SHEPHERD'S GROVE,52.317,0.917
035900,99999,WATTISHAM,52.127,0.956
035905,99999,NEWTON,52.967,-0.983
035930,99999,BECCLES (AUX),52.433,1.617
035951,99999,WOODBRIDGE RAF,52.083,1.4
035953,99999,WOODBRIDGE RAF,52.083,1.4
035961,99999,BENTWATERS RAF,52.133,1.433
035963,35048,BENTWATERS RAF,52.133,1.433
035963,99999,BENTWATERS RAF,52.133,1.433
035980,99999,ALDEBURGH,52.15,1.6
035990,99999,HENLOW,52.017,-0.267
036010,99999,ST. ANNES HEAD,51.683,-5.167
036030,99999,BRAWDY(RAF),51.883,-5.117
036040,99999,MILFORD HAVEN CONSERVANCY BOA,51.7,-5.05
036050,99999,PEMBRY SANDS,51.717,-4.367
036060,99999,MONKSTONE PT.,51.7,-4.667
036070,99999,PENDINE (AUT),51.75,-4.517
036080,99999,PENDINE (AUT),51.75,-4.517
036090,99999,MUMBLES HEAD,51.567,-3.983
036095,99999,SWANSEA,51.605,-4.068
036100,99999,PENCELLI (AUX),51.917,-3.317
036110,99999,BRYNAMMAN,51.817,-3.867
036120,99999,TRECASTLE,51.95,-3.7
036130,99999,CWMBARGOED,51.75,-3.333
036140,99999,CILFYNYDD,51.633,-3.3
036150,99999,ABERDARE,51.717,-3.467
036170,99999,STOREY ARMS,51.867,-3.483
036240,99999,KYMIN,51.817,-2.683
036250,99999,WYESHAM,51.8,-2.7
036260,99999,BERRY HILL,51.8,-2.617
036270,99999,ROSS-ON-WYE,51.911,-2.586
036280,99999,FILTON,51.517,-2.583
036283,99999,BRISTOL FILTON,51.519,-2.591
036330,99999,GLOUCESTER,51.867,-2.217
036333,99999,GLOUCESTERSHIRE,51.894,-2.167
036380,99999,KEMBLE RAF,51.667,-2.05
036383,99999,KEMBLE,51.668,-2.057
036440,99999,FAIRFORD,51.682,-1.79
036460,99999,,,
036470,99999,LITTLE RISSINGTON,51.867,-1.683
036490,99999,BRIZE NORTON,51.75,-1.584
036530,99999,ABINGDON(RAF),51.683,-1.317
036550,99999,UPPER HEYFORD(USAF),51.933,-1.25
036551,99999,UPPER HEYFORD RAF,51.933,-1.25
036553,99999,UPPER HEYFORD RAF,51.933,1.25
036570,99999,BENSON (AUT),51.617,-1.1
036580,99999,BENSON,51.616,-1.096
036584,99999,COLERNE,51.439,-2.286
036600,99999,HIGH WYCOMBE HQAIR,51.683,-0.8
036690,99999,,,
036720,99999,NORTHOLT,51.553,-0.418
036731,99999,LUTON ARPT,51.883,-0.367
036733,99999,LUTON,51.875,-0.368
036740,99999,CHENIES(AUTO),51.683,-0.533
036800,99999,ROTHAMSTED,51.8,-0.358
036830,99999,STANSTED,51.885,0.235
036840,99999,ANDREWSFIELD,51.883,0.45
036880,99999,WETHERSFIELD(RAF),51.967,0.5
036881,99999,WEATHERSFIELD RAF,51.967,0.5
036883,99999,WEATHERSFIELD RAF,51.967,0.5
036911,99999,SOUTHEND AIRPORT,51.567,0.7
036913,99999,SOUTHEND,51.571,0.696
036930,99999,SHOEBURYNESS  LANDWICK,51.55,0.833
036940,99999,SHOEBURYNESS (AUT),51.55,0.833
036950,99999,THAMES TOWER (AUT),51.667,1.1
036960,99999,WALTON-ON-THE-NAZE,51.85,1.283
036970,99999,FELIXSTOWE,51.95,1.333
036980,99999,TONGUE (LGT-VSL),51.517,1.383
036990,99999,GALLOPER (LGT-VSL),51.733,1.967
037000,99999,SAINT GOWAN L.V.,51.5,-5
037010,99999,GAWLISH,51.017,-4.5
037020,99999,LUNDY ISL (LGT-H),51.167,-4.65
037030,99999,HARTLAND POINT,51.017,-4.533
037031,99999,HARTLAND POINT,51.033,-4.533
037040,99999,HARTLAND,50.983,-4.467
037060,99999,ILFRACOMBE C.G.,51.217,-4.083
037061,99999,ILFRACOMBE C.G.,51.217,-4.083
037070,99999,CHIVENOR,51.087,-4.15
037090,99999,MINEHEAD,51.2,-3.45
037100,99999,LISCOMBE,51.083,-3.6
037110,99999,EXTON,51,-3.483
037120,99999,TIVINGTON,51.2,-3.533
037150,99999,CARDIFF,51.397,-3.343
037155,99999,ST ATHAN,51.4,-3.433
037160,99999,ST ATHAN,51.405,-3.436
037170,99999,CARDIFF WEATHER CENTRE,51.483,-3.183
037241,99999,BRISTOL/LULSGATE,51.383,-2.717
037243,99999,BRISTOL,51.383,-2.719
037260,99999,BRISTOL WEA CENTER,51.467,-2.6
037400,99999,LYNEHAM,51.505,-1.993
037430,99999,LARKHILL,51.2,-1.8
037435,99999,GREENHAM COMMON RAF,51.383,-1.283
037440,99999,UPAVON,51.3,-1.767
037450,99999,NETHERAVON(RA),51.25,-1.767
037460,99999,BOSCOMBE DOWN,51.152,-1.747
037480,99999,WINCHESTER,51.067,-1.317
037490,99999,MIDDLE WALLOP,51.15,-1.567
037520,99999,,,
037590,99999,TEST SAMOS 03761,51.25,-0.95
037610,99999,ODIHAM,51.234,-0.943
037630,99999,BRACKNELL/BEAUFORT,51.383,-0.783
037640,99999,BRACKNELL (AUT),51.383,-0.8
037660,99999,FARNBOROUGH (MIL),51.283,-0.767
037661,99999,BIGGIN HILL,51.283,0.033
037663,99999,BIGGIN HILL,51.331,0.033
037670,99999,LIPHOOK,51.083,-0.817
037680,99999,FARNBOROUGH,51.276,-0.776
037683,99999,CITY,51.505,0.055
037690,99999,CHARLWOOD,51.144,-0.229
037700,99999,ST JAMES PARK,51.5,-0.117
037720,99999,HEATHROW,51.478,-0.461
037740,99999,CRAWLEY,51.083,-0.217
037750,99999,KEW-IN-LONDON,51.467,-0.317
037760,99999,GATWICK,51.148,-0.19
037770,99999,PURLEY OAKS,51.35,-0.117
037780,99999,LONDON WEA CENTER,51.517,-0.117
037790,99999,LONDON WEA CENTER,51.5,-0.117
037800,99999,REDHILL,51.217,-0.133
037810,99999,KENLEY AIRFIELD,51.3,-0.083
037815,99999,LEAVESDEN,51.683,-0.417
037820,99999,BLACKWALL,51.517,0.017
037830,99999,GALLIONS REACH,51.5,-0.067
037840,99999,GRAVESEND-BROADNESS,51.467,0.3
037850,99999,CHARING,51.2,0.783
037860,99999,GRAVESEND,51.433,0.383
037871,99999,WEST MALLING,51.283,0.417
037890,99999,JUBILEE CORNER,51.183,0.633
037900,99999,EAST MALLING (AUT),51.283,0.45
037910,99999,SHEERNESS,51.45,0.75
037920,99999,DODDINGTON,51.283,0.783
037930,99999,ANVIL GREEN,51.2,1.017
037940,99999,BECAME STN 037941,51.15,1.383
037950,99999,LYMPNE,51.083,1.017
037951,99999,ASHFORD,51.15,0.883
037960,99999,LANGDON BAY,51.133,1.35
037970,35047,MANSTON,51.35,1.333
037970,99999,MANSTON,51.342,1.346
037980,99999,FALLS (LGT-VSL),51.3,1.817
037990,99999,EAST GOODWIN L.V.,51.217,1.6
038000,99999,SCILLY/ST. MARY'S,49.917,-6.283
038010,99999,,,
038020,99999,SCILLY/ROUND ISLAND,49.983,-6.317
038030,99999,SCILLY/SAINT MARY'S,49.917,-6.3
038040,99999,SCILLY/ST.MARYS,49.933,-6.3
038050,99999,SEVEN STONES L.V.,50.05,-6.067
038060,99999,LANDS END ARPT,50.064,-5.709
038080,99999,CAMBORNE,50.217,-5.317
038090,99999,CULDROSE,50.086,-5.256
038100,99999,PENDENNIS POINT,50.15,-5.067
038110,99999,PORT PENDENNIS,50.133,-5.033
038140,99999,LIZARD,49.95,-5.183
038150,99999,LIZARD LIGHTHOUSE,49.967,-5.2
038170,99999,ST MAWGAN,50.433,-5
038200,99999,DAVIDSTOW MOOR,50.633,-4.6
038230,99999,CARDINHAM  BODMIN,50.5,-4.667
038240,99999,BASTREET,50.567,-4.483
038250,99999,,,
038270,99999,PLYMOUTH/MOUNTBATTE,50.35,-4.117
038273,99999,PLYMOUTH,50.423,-4.106
038280,99999,SOUTHWEST YELVERTON,50.483,-4.1
038300,99999,BURRINGTON,50.933,-3.983
038310,99999,NORTH HESSARY TOR,50.55,-4
038320,99999,OKEHAMPTON,50.717,-4
038330,99999,CHAWLEIGH,50.9,-3.8
038340,99999,PRAWLE POINT,50.2,-3.717
038341,99999,PRAWLE POINT,50.2,-3.717
038370,99999,BRIXHAM,50.4,-3.483
038390,99999,EXETER,50.734,-3.414
038400,99999,DUNKESWELL AERODROME,50.867,-3.233
038410,99999,TEMP FOR 038400,50.867,-3.25
038450,99999,BEER-IN-DEVON,50.7,-3.1
038530,99999,YEOVILTON,51.009,-2.639
038550,99999,PORTLAND BILL C.G.,50.517,-2.433
038560,99999,PORTLAND BILL (LH),50.517,-2.45
038570,99999,ISLE OF PORTLAND,50.517,-2.45
038580,99999,PORTLAND HELIPORT,50.567,-2.45
038590,99999,POOLE HARBOR,50.7,-1.983
038600,99999,ANVIL POINT,50.583,-1.967
038610,99999,CHRISTCHURCH BAY,50.7,-1.667
038620,99999,BOURNEMOUTH,50.78,-1.843
038630,99999,THE NEEDLES (CAPE),50.667,-1.583
038640,99999,,,
038650,99999,SOUTHAMPTON,50.95,-1.357
038660,99999,WIGHT: ST. CATHERINES POINT,50.583,-1.3
038670,99999,LEE-ON-SOLENT,50.817,-1.217
038690,99999,CALSHOT-IN-HANTS,50.817,-1.3
038700,99999,NAB TOWER LH (DEAD),50.667,-0.95
038710,99999,,,
038720,99999,THORNEY ISLAND,50.817,-0.917
038730,99999,TOTLAND,50.683,-1.533
038740,99999,SOLENT,50.8,-1.217
038750,99999,WELLOW,50.683,-1.45
038760,99999,SHOREHAM,50.836,-0.297
038770,99999,EAST HOATHLY,50.917,0.15
038790,99999,SHOREHAM-BY-SEA,50.817,-0.25
038793,99999,SHOREHAM-BY-SEA,50.817,-0.267
038800,99999,NEWHAVEN (LGT-H),50.783,0.05
038810,99999,BREDE,50.933,0.6
038820,99999,HERSTMONCEUX  WEST END,50.9,0.317
038830,99999,EASTBOURNE,50.783,0.3
038840,99999,HERSTMONCEUX,50.867,0.333
038850,99999,ROYAL SOVEREIGN(LH),50.717,0.45
038860,99999,FAIRLIGHT,50.867,0.633
038871,99999,LYDD AIRPORT,50.95,0.933
038873,99999,LYDD,50.956,0.939
038880,99999,DUNGENESS,50.917,0.967
038900,99999,CHANNEL (LGT-VSL),49.9,-2.917
038915,99999,ALDERNEY,49.706,-2.215
038940,99999,GUERNSEY,49.435,-2.602
038950,99999,JERSEY,49.208,-2.196
038960,99999,ST. HELIER,49.2,-2.1
038980,99999,VARNE (LGT-VSL),51.017,1.4
039000,99999,KNOCKAREVAN,54.417,-8.083
039010,99999,THOMASTOWN,54.333,-7.6
039020,99999,CORGARY,54.433,-8.05
039030,99999,ST ANGELO,54.4,-7.65
039040,99999,CASTLEDERG,54.7,-7.583
039050,99999,CARRIGANS,54.667,-7.317
039060,99999,CARMONEY,55.017,-7.233
039070,99999,MAGILLIGAN NO 2,55.15,-6.933
039080,99999,BALLYKELLY,55.067,-7.017
039084,99999,LONDONDERRY EGLINTON,55.043,-7.161
039090,99999,MONEYDIG,54.983,-6.6
039100,99999,MAGHERA,54.85,-6.7
039110,99999,LOUGH FEA,54.717,-6.817
039120,99999,MOYOLA,54.717,-6.517
039130,99999,ANNAGHMORE,54.45,-6.567
039140,99999,PORTRUSH,55.2,-6.667
039150,99999,PORTGLENONE,54.867,-6.45
039155,99999,COWDEN,53.85,-6.1
039160,99999,BALLYPATRICK FOREST,55.183,-6.167
039170,99999,ALDERGROVE,54.658,-6.216
039180,99999,CASTOR BAY,54.5,-6.333
039200,99999,HILLSBOROUGH,54.483,-6.1
039220,99999,KILKEEL,54.05,-6
039230,99999,GLENANNE NO2,54.233,-6.5
039240,99999,CITY,54.618,-5.873
039250,99999,ORLOCK HEAD,54.667,-5.583
039260,99999,KILLOUGH,54.233,-5.617
039270,99999,BANGOR HARBOUR,54.667,-5.667
039280,99999,LARNE,54.85,-5.8
039290,99999,PORTMUCK,54.85,-5.733
039510,99999,SHERKIN ISLAND,51.467,-9.417
039520,99999,ROCHES POINT,51.8,-8.25
039530,99999,VALENTIA OBSERVATORY,51.933,-10.25
039550,99999,CORK,51.841,-8.491
039560,99999,JOHNSTOWN CASTLE,52.283,-6.483
039570,99999,ROSSLARE,52.25,-6.333
039600,99999,KILKENNY,52.667,-7.267
039610,99999,OAK PARK - CARLOW,52.85,-6.9
039620,99999,SHANNON,52.702,-8.925
039630,99999,MACE HEAD,53.317,-9.9
039640,99999,GALWAY,53.283,-9.017
039650,99999,BIRR,53.083,-7.883
039660,99999,GURTEEN,53.017,-8
039670,99999,CASEMENT,53.302,-6.451
039689,99999,DUBLIN WEATHER CENTER,53.433,-6.25
039690,99999,DUBLIN,53.421,-6.27
039700,99999,CLAREMORRIS,53.717,-8.983
039710,99999,MULLINGAR,53.533,-7.367
039730,99999,CONNAUGHT,53.91,-8.818
039740,99999,CLONES,54.183,-7.233
039760,99999,BELMULLET,54.233,-10
039780,99999,FINNER,54.483,-8.233
039790,99999,BALLYHAISE,54.05,-7.3
039800,99999,MALIN HEAD,55.367,-7.333
040010,99999,BREIDAVIK,65.533,-24.35
040011,99999,HVALLATUR,65.533,-24.467
040030,99999,KVIGINDISDALUR,65.55,-24.017
040040,99999,GUFUSKALAR,64.9,-23.933
040050,99999,BOLUNGAVIK,66.15,-23.25
040060,99999,BOGUS ICELAND,0,0
040070,99999,HOLAR I DYRAFIRDI,65.867,-23.6
040100,99999,NEDRI-HOLL,64.8,-23.033
040110,99999,,,
040130,99999,STYKKISHOLMUR,65.083,-22.733
040131,99999,ISAFJORDUR,66.058,-23.135
040140,99999,REYKJANESVITI,63.817,-22.717
040170,99999,AEDEY,66.1,-22.667
040180,16201,KEFLAVIK NAVAL AIR STATION,63.967,-22.6
040230,99999,HORNBJARGSVITI (LH),66.417,-22.383
040250,99999,REYKHOLAR,65.45,-22.2
040260,99999,HAUKATUNGA,64.817,-22.267
040270,99999,ASGARDUR,65.233,-21.75
040300,99999,REYKJAVIK,64.13,-21.941
040310,99999,GJOGUR,65.983,-21.35
040340,99999,STAFHOLTSEY,64.617,-21.6
040380,99999,EYRARBAKKI,63.867,-21.15
040400,99999,HEIDARBAER,64.2,-21.233
040410,99999,TANNSTADABAKKI,65.283,-21.1
040420,99999,HJARDARLAND,64.25,-20.417
040440,99999,HELLA,63.833,-20.4
040450,99999,BLONDUOS,65.667,-20.3
040480,99999,VESTMANNAEYJAR,63.424,-20.279
040500,99999,HAELL,64.067,-20.25
040530,99999,BERGSTADIR,65.7,-19.617
040550,99999,NAUTABU,65.45,-19.367
040560,99999,HVERAVELLIR,64.867,-19.567
040580,99999,VATNSSKARDSHOLAR,63.417,-19.183
040590,99999,SAUDANESVITI,66.183,-18.967
040620,99999,NORDURHJALEIGA,63.5,-18.383
040630,99999,AKUREYRI,65.66,-18.073
040640,99999,KIRKJUBAEJARKLAUSTUR,63.783,-18.067
040650,99999,GRIMSEY ISLAND,66.533,-18.017
040655,99999,BILDUDALUR,65.641,-23.546
040680,99999,SANDBUDIR,64.933,-17.983
040690,99999,STADARHOLL,65.817,-17.2
040710,99999,MANARBAKKI,66.2,-17.1
040720,99999,FAGURHOLSMYRI,63.883,-16.65
040730,99999,GRIMSSTADIR,65.633,-16.117
040750,99999,MOURUDALUR,65.367,-15.883
040770,99999,RAUFARHOFN,66.45,-15.95
040800,99999,SNAEFELLSSKALI,64.8,-15.633
040810,99999,SAUDANES,66.25,-15.267
040820,99999,HORNAFJORDUR,64.296,-15.227
040831,99999,SKORUVIK,66.35,-14.767
040850,99999,SKJALDTHINGSSTADIR,65.75,-14.833
040860,99999,HORN I HORNAFIRDI,64.267,-14.983
040870,99999,STRANDHOFN,65.9,-14.65
040890,99999,EGILSSTADIR,65.283,-14.401
040910,99999,REYDARFJORDUR,65.033,-14.233
040920,99999,DJUPIVOGUR,64.65,-14.283
040970,99999,DALATANGI,65.267,-13.583
041010,99999,BJARGTANGAR,65.5,-24.517
041030,99999,PATREKSFJORDUR,65.6,-24
041040,99999,GUFUSKALAR,64.9,-23.933
041090,99999,THVERFJALL,66.05,-23.317
041100,99999,NAVY OPERATED(AMOS),72.283,-38.8
041150,99999,DYNJANDIHEIDI,65.7,-23.083
041200,99999,GRINDAVIK,63.85,-22.417
041230,99999,HORNBJARGSVITI,66.417,-22.383
041240,99999,STRAUMSVIK,64.05,-22.333
041260,99999,GRUNDARTANGI,64.35,-21.783
041270,99999,BOLUNGARVIK,66.167,-23.25
041300,99999,REYKJAVIK,64.133,-21.9
041310,99999,GJOGUR,65.983,-21.35
041370,99999,AKUREYRI A,65.683,-18.117
041400,99999,THORLAKSHOFN,63.85,-21.383
041450,99999,BLONDUOS,65.667,-20.3
041460,99999,VESTMANNAEYJABAER,63.433,-20.283
041490,99999,KOLKA,65.4,-19.717
041540,99999,BURFELL,64.083,-19.733
041560,99999,HVERAVELLIR,64.867,-19.567
041600,99999,THUFUVER,64.583,-18.6
041620,99999,VEIDIVATNAHRAUN,64.4,-18.5
041650,99999,GRIMSEY,66.533,-18.017
041660,99999,JOKULHEIMAR,64.317,-18.217
041680,99999,SANDBUDIR,64.933,-17.983
041700,99999,SKARDSFJORUVITI,63.517,-17.983
041750,99999,ICELAND SITE,66.51,-16.54
041760,99999,KARAHNJUKAR,64.933,-15.783
041800,99999,HVANNEY,64.233,-15.2
041830,99999,FONTUR,66.383,-14.533
041900,99999,BOGUS GREENLAND,,
041930,99999,GAGNHEIDI,65.217,-14.267
041950,99999,ICELAND SITE,65.28,-14
041960,99999,KAMBANES,64.8,-13.85
041970,99999,DALATANGI,65.267,-13.583
042000,99999,DUNDAS,76.5,-69
042010,99999,QAANAAQ,77.467,-69.217
042020,99999,THULE AIR BASE,76.531,-68.703
042021,99999,AASIAAT MITTARFIA,68.717,-52.8
042022,99999,JAKOBSHAVN LUFTHAVN,69.233,-51.067
042023,99999,QAARSUT MITTARFIA,70.733,-52.7
042024,99999,SISIMIUT,66.95,-53.733
042025,99999,UPERNAVIK,72.783,-56.167
042030,99999,KITSISSUT (CAREY OEER),76.633,-73
042040,99999,MANIITSOQ,65.417,-52.933
042050,99999,MITTARFIK QAANAAQ,77.483,-69.383
042070,99999,HALL LAND,81.683,-59.933
042080,99999,KITSISSORSUIT (EDDERFUGLE OEE,74.033,-57.817
042090,99999,UPERNAVIK AWS,72.77,-56.17
042100,99999,UPERNAVIK,72.783,-56.167
042110,99999,MITTARFIK UPERNAVIK (UPERNAVI,72.783,-56.133
042120,99999,UUMMANNAQ HELIPORT,70.683,-52.117
042130,99999,QAARSUT MITTARFIA (UUMMANNAQ,70.733,-52.7
042140,99999,NUUSSUAATAA (NUUSSUAQ),70.683,-54.617
042160,99999,JAKOBSHAVN,69.217,-51.05
042163,99999,JAKOBSHAVN,69.217,-51.05
042170,99999,QASIGIANNGUIT HELIPORT,68.817,-51.183
042180,99999,GODHAVN PORT,69.333,-53.583
042200,99999,AASIAAT (EGEDESMINDE),68.7,-52.85
042210,99999,ILULISSAT (JAKOBSHAVN),69.233,-51.067
042215,99999,QAANAAQ,77.467,-69.217
042240,99999,AASIAAT MITTARFIA (EGEDESMIND,68.717,-52.8
042280,99999,KITSISSUT (ATTU),67.783,-53.967
042300,99999,SISIMIUT /HOLSTEINS,66.917,-53.667
042310,99999,SONDRE STROMFJORD,67.017,-50.689
042340,99999,SISIMIUT MITTARFIA (HOLSTEINS,66.95,-53.717
042350,99999,DYE 1 (RED RIVER),66.633,-52.867
042400,99999,SUKKERTOPPEN,65.4,-52.867
042410,99999,MANIITSOQ MITTARFIA (SUKKERTO,65.417,-52.933
042420,99999,SIORALIK,65.017,-52.55
042500,99999,NUUK (GODTHAAB),64.167,-51.75
042520,99999,FAERINGEHAVN,63.7,-51.55
042530,99999,UKIIVIK (FREDERIKSHAAB ISBLIN,62.567,-50.417
042540,99999,MITTARFIK NUUK (GODTHAAB LUFT,64.2,-51.683
042600,99999,FREDERIKSHAAB,62.017,-49.667
042605,99999,FREDICKSHAB/PAAMIUT AIRPORT,61.983,-49.7
042610,99999,GROENNEDAL,61.233,-48.1
042630,99999,ARSUK,61.183,-48.45
042660,99999,NUNARSUIT,60.75,-48.45
042700,99999,NARSARSUAQ,61.161,-45.426
042720,99999,JULIANEHAAB,60.717,-46.05
042730,99999,QAQORTOQ HELIPORT,60.717,-46.033
042740,99999,QAGSSIMIUT,60.8,-47.1
042800,99999,NARSAQ HELIPORT,60.917,-46.05
042801,99999,NARSSAQ,60.9,-45.967
042830,99999,NANORTALIK HELIPORT,60.133,-45.233
042850,99999,ANGISOQ,59.983,-45.2
043010,99999,KAP MORRIS JESUP,83.65,-33.367
043050,99999,CAPE HARALD MOLTKE,82.15,-29.917
043100,99999,STATION NORD,81.6,-16.65
043120,99999,STATION NORD AWS,81.6,-16.65
043130,99999,HENRIK KROEYER HOLME,80.65,-13.717
043200,99999,DANMARKSHAVN (PORT),76.767,-18.667
043300,99999,DANEBORG (AUT),74.3,-20.217
043301,99999,DUNDAS,76.5,-69
043311,99999,UGO DANEBORGE,74.3,-20.217
043350,99999,MYGGBUKTA,73.483,-21.567
043380,99999,MESTERS VIG,72.25,-24.333
043390,99999,SCORESBYSUND,70.483,-21.95
043400,99999,CAPE TOBIN (AUT),70.417,-21.967
043410,99999,CONSTABLE POINT,70.75,-22.65
043490,99999,KANGERDLUGSSUAK,68.15,-31.75
043500,99999,APUTITEQ (AUT),67.783,-32.3
043510,99999,APUTITEEQ,67.783,-32.283
043600,99999,TASIILAQ,65.6,-37.633
043610,99999,KULUSUK LUFTHAVN,65.583,-37.15
043650,99999,KULUSUK LUFTHAVN,65.567,-37.117
043730,99999,IKERMIIT,64.783,-40.3
043800,99999,TINGMIARMIUT,62.417,-42.25
043810,99999,IKERMIUARSSUK (AUT),61.8,-42
043820,99999,IKERMIUARSUK,61.933,-42.067
043900,99999,PRINS CHRISTIAN,60.033,-43.117
044160,99999,SUMMIT,72.583,-38.45
044180,99999,SUMMIT-US,72.583,-38.5
044360,99999,NEEM,77.502,-50.874
044520,99999,JAR 1,69.496,-49.694
044580,99999,SISS CAMP,69.565,-49.331
044640,99999,DYE 2,66.481,-46.283
044850,99999,SADDLE,65.983,-44.5
044880,99999,NASA-SE,66.467,-42.483
049999,00001,BARBER,71.67,-38.17
049999,00002,CATHY (GREENLAND),72.3,-38
049999,00003,GISP2,72.58,-38.46
049999,00004,GRIP,72.57,-37.62
049999,00005,JULIE,72.57,-34.63
049999,00006,KENTON (GREENLAND),72.28,-38.82
049999,00007,KLINCK,72.31,-40.48
049999,00008,MATT,73.48,-37.62
060050,99999,MYKINES,62.1,-7.683
060080,99999,FRODBA HELIPORT,61.533,-6.767
060090,99999,AKRABERG,61.4,-6.667
060100,99999,VAGAR,62.064,-7.277
060110,99999,TORSHAVN,62.017,-6.767
060120,99999,KIRKJA,62.317,-6.317
060130,99999,KATIMA MULILO ARPT/OKAMAPU,-17.634,24.177
060160,99999,HORNS REV A,55.5,7.867
060170,99999,HORNS REV B HELIDECK,55.6,7.624
060190,99999,SILSTRUP,56.933,8.633
060210,99999,HANSTHOLM,57.117,8.6
060220,99999,TYRA OST,55.72,4.8
060221,99999,GORM C  OIL PLATFORM HELIPAD,55.58,4.759
060222,99999,HALFDAN A  OIL PLATFORM HELIP,55.531,5.004
060223,99999,TYRA E OIL PLATFORM HELIPAD,55.722,4.802
060224,99999,HARALD HELIDECK OIL RIG,56.344,4.272
060230,99999,GORM (AUT/MAN),55.583,4.767
060240,99999,THISTED,57.069,8.705
060300,99999,FLYVESTATION AALBORG,57.093,9.849
060310,99999,TYLSTRUP,57.183,9.95
060320,99999,STENHOJ,57.383,10.333
060330,99999,HIRTSHALS,57.6,9.967
060335,99999,SINDAL,57.467,10.217
060340,99999,SINDAL,57.504,10.229
060370,99999,SKAGEN,57.783,10.733
060410,99999,SKAGEN,57.733,10.633
060430,99999,FREDERIKSHAVN,57.4,10.517
060440,99999,HALS,56.983,10.317
060450,99999,DYBVAD,57.267,10.317
060460,99999,,,
060470,99999,LAESO TRINDEL,57.467,11.417
060480,99999,HADSUND,56.717,10.117
060490,99999,HALD V,56.567,10.1
060520,99999,THYBOROEN,56.7,8.217
060530,99999,AGGERSUND,57,9.3
060540,99999,LINDTORP AIRPORT,56.383,8.433
060550,99999,TORSMINDE,56.367,8.117
060560,99999,MEJRUP,56.383,8.667
060580,99999,HVIDE SANDE,56,8.15
060590,99999,LYNGVIG,56.05,8.1
060600,99999,KARUP,56.297,9.125
060620,99999,SKIVE,56.55,9.173
060630,99999,RONBJERG HUSE HAVN,56.9,9.167
060640,99999,HOLSTEBRO,56.367,8.583
060650,99999,AARS SYD,56.75,9.5
060660,99999,STAUNING,55.99,8.354
060670,99999,,,
060680,99999,ISENVAD,56.1,9.183
060690,99999,FOULUM,56.5,9.567
060700,99999,AARHUS,56.3,10.619
060710,99999,FORNAES (CAPE),56.45,10.967
060720,99999,OEDUM,56.3,10.133
060730,99999,SLETTERHAGE FYR,56.1,10.517
060740,99999,AARHUS SYD,56.083,10.133
060750,99999,AARHUS,56.167,10.217
060760,99999,HADSTEN (DEAD),56.333,10.05
060780,99999,ANHOLT ISLAND (AUT),56.7,11.55
060790,99999,ANHOLT,56.717,11.517
060800,99999,ESBJERG,55.526,8.553
060810,99999,BLAAVANDSHUK,55.55,8.083
060820,99999,BORRIS,55.967,8.633
060840,99999,HERNING/SKINDERHOLM,56.183,9.033
060860,99999,OKSBOEL,55.583,8.25
060870,99999,ANHOLT KNOB,56.75,11.9
060890,99999,SAEDENSTRAND,55.5,8.4
060930,99999,VESTER VEDSTED,55.3,8.667
060960,99999,ROEMOE/JUVRE,55.183,8.567
060990,99999,HAVNEBY,55.083,8.567
060994,99999,OKSBOEL,55.583,8.25
061000,99999,VANDEL,55.7,9.2
061020,99999,HORSENS/BYGHOLM,55.867,9.783
061040,99999,BILLUND,55.74,9.152
061050,99999,,,
061060,99999,TVINGSTRUP,55.917,9.917
061070,99999,HORNS REV (DEAD),55.567,7.333
061080,99999,KOLDING VAMDRUP,55.436,9.331
061090,99999,ASKOV,55.467,9.117
061100,99999,SKRYDSTRUP,55.226,9.264
061110,99999,BAAGOE,55.3,9.8
061150,99999,MOLLEHUS,54.9,8.833
061160,99999,ST. JYNDEVAD (AUT),54.9,9.167
061180,99999,SONDERBORG,54.964,9.792
061190,99999,KEGNAES,54.85,9.983
061200,99999,ODENSE,55.477,10.331
061230,99999,ASSENS/TOROE,55.25,9.883
061240,99999,SYDFYNS/TASINGE ISL,55.017,10.567
061245,99999,AVNO AIR BASE,55.083,11.783
061260,99999,AARSLEV,55.317,10.433
061280,99999,MIDDLEFART,55.517,9.767
061310,99999,VESBORG,55.767,10.55
061350,99999,FLAKKEBJERG,55.317,11.383
061360,99999,TYSTOFTE,55.25,11.333
061370,99999,HATTER BARN,55.867,10.933
061380,99999,LANGOE,54.817,11
061390,99999,KELDSNOR,54.733,10.733
061400,99999,NAKSKOV AIRPORT,54.817,11.133
061410,99999,ABED,54.833,11.333
061420,99999,ALBUEN,54.833,10.967
061430,99999,LOLLAND FALSTER MARIBO,54.699,11.44
061440,99999,BOGUS DANISH,0,0
061441,99999,MARIBO AIRPORT,54.7,11.45
061443,99999,MARIBO AIRPORT,54.7,11.433
061470,99999,VINDEBAEK KYST,54.883,12.183
061490,99999,GEDSER,54.567,11.95
061500,99999,AVNO(DAFB),55.083,11.783
061510,99999,OMOE,55.167,11.133
061520,99999,GLUMSO-ON-SJAELLAND,55.35,11.683
061530,99999,TYVELSE,55.383,11.683
061540,99999,BRANDELEV,55.2,11.867
061551,99999,RINGSTED ARPT,55.426,11.807
061560,99999,HOLBAEK,55.733,11.6
061570,99999,,,
061580,99999,KALUNDBORG,55.667,11.1
061590,99999,ROESNAES,55.75,10.867
061600,99999,VAERLOSE,55.767,12.343
061610,99999,SPODSBJERG,55.983,11.867
061620,99999,KRONBORG,56.033,12.633
061640,99999,HESSELO ISL (AUT),56.2,11.717
061650,99999,HESSELOE,56.2,11.717
061655,99999,COPENHAGEN/ROSKILDE,55.583,12.133
061680,99999,NAKKEHOVED,56.117,12.35
061690,99999,GNIBEN,56.017,11.283
061700,99999,ROSKILDE,55.586,12.131
061730,99999,STEVNS,55.283,12.45
061740,99999,TESSEBOELLE,55.4,12.15
061790,99999,MOEN,54.95,12.533
061800,99999,KASTRUP,55.618,12.656
061810,99999,JAEGERSBORG,55.767,12.533
061830,99999,DROGDEN,55.533,12.717
061840,99999,DMI,55.717,12.567
061860,99999,KOEBENHAVN/LANDBOHOEJSKOLEN,55.683,12.55
061880,99999,SJAELSMARK,55.883,12.417
061900,99999,BORNHOLM RONNE,55.063,14.76
061910,99999,CHRISTIANSO (LGT-H),55.317,15.183
061930,99999,HAMMER ODDE FYR,55.3,14.767
061960,99999,POVLSKER,55.017,15.067
061970,99999,NEXOE VEST,55.05,15.1
061990,99999,DUEODDE (CAPE),55,15.083
062000,99999,YPENBURG(NAFB),52.033,4.35
062010,99999,D15-FA-1 HELIPAD OIL PLATFORM,54.317,2.933
062030,99999,P11-B / DE RUYTER,52.367,3.35
062040,99999,K14-FA-1C,53.267,3.633
062050,99999,A12-CPP HELIPAD OIL PLATFORM,55.417,3.817
062060,99999,F16-A,54.117,4.017
062070,99999,L9-FF-1,53.617,4.967
062080,99999,AWG-1,53.5,5.95
062090,99999,IJMOND,52.467,4.517
062100,99999,VALKENBURG,52.167,4.433
062110,99999,J6-A HELIPAD OIL PLATFORM,53.817,2.95
062120,99999,HOORN-A HELIPAD OIL PLATFORM,52.917,4.15
062200,99999,TEXEL ISLAND,53.083,4.75
062250,99999,IJMUIDEN,52.467,4.567
062290,99999,TEXELHORS WP,53,4.717
062300,99999,DEN HELDER,52.967,4.75
062350,99999,DE KOOIJ,52.923,4.781
062390,99999,F3 - NETHERLANDS,54.85,4.733
062400,99999,SCHIPHOL,52.309,4.764
062410,99999,AMSTERDAM/COPENHA,52.417,4.867
062420,99999,VLIELAND ISLAND,53.25,4.917
062440,99999,HOORAN AWS,52.65,5.05
062450,99999,,,
062470,99999,BLOEMENDAAL,52.417,4.55
062480,99999,WIJDENES,52.633,5.167
062490,99999,BERKHOUT,52.65,4.983
062500,99999,TERSCHELLING(LGT-H),53.367,5.217
062510,99999,TERSCHELLING HOORN AWS,53.4,5.35
062520,99999,K13-A,53.217,3.217
062530,99999,AUK-ALFA,56.383,2.05
062540,99999,MEETPOST NOORDWIJK,52.267,4.3
062550,99999,NOORDELIJKE ZEERAAF,61.233,1.15
062570,99999,WIJK AAN ZEE,52.5,4.6
062580,99999,HOUTRIBDIJK,52.65,5.4
062600,99999,DE BILT,52.1,5.183
062650,99999,SOESTERBERG,52.127,5.276
062670,99999,STAVOREN AWS,52.9,5.383
062680,99999,HOUTRIB,52.533,5.433
062690,99999,LELYSTAD,52.46,5.527
062691,99999,AUK-ALFA,56.4,2.067
062692,99999,EURO PLATFORM,52,3.283
062693,99999,VLISSINGEN,51.45,3.6
062694,99999,LE GOEREE,51.933,3.667
062695,99999,K13-A,53.217,3.217
062696,99999,MEETPOST NOORDWUK,52.267,4.3
062697,99999,NOORDELUKE ZEERAAF,61.233,1.15
062700,99999,LEEUWARDEN,53.229,5.761
062710,99999,STAVOREN HAVEN,52.883,5.35
062720,99999,RAMSPOL,52.617,5.85
062730,99999,MARKNESSE AWS,52.7,5.883
062750,99999,DEELEN,52.061,5.873
062770,99999,LAUWERSOOG AWS,53.417,6.2
062780,99999,HEINO AWS,52.433,6.267
062790,99999,HOOGEVEEN AWS,52.733,6.573
062800,99999,EELDE,53.12,6.579
062830,99999,HUPSEL AWS,52.067,6.65
062850,99999,HUIBERTGAT WP,53.567,6.4
062860,99999,NIEUW BEERTA,53.2,7.15
062900,99999,TWENTHE,52.27,6.874
063000,99999,NOORDHINDER,51.65,2.567
063080,99999,CADZAND WP,51.383,3.383
063100,99999,VLISSINGEN,51.45,3.6
063110,99999,HOOFDPLAAT,51.367,3.667
063120,99999,OOSTERSCHELDE WP,51.767,3.617
063130,99999,VLAKTE VAN RAAN,51.5,3.25
063150,99999,HANSWEERT,51.433,4.017
063160,99999,OOSTERSCHELDE 4,51.65,3.7
063190,99999,WESTDORPE,51.233,3.867
063200,99999,LE GOEREE,51.933,3.667
063210,99999,EURO PLATFORM,52,3.283
063230,99999,WILHELMINADORP AWS,51.533,3.883
063240,99999,STAVENISSE,51.6,4
063250,99999,ZIERIKZEE,51.65,3.933
063300,99999,HOEK VAN HOLLAND,51.983,4.1
063310,99999,MAROLLEGAT,51.483,4.2
063400,99999,WOENSDRECHT,51.449,4.342
063401,99999,WOENSDRECHT RNLAFB&,51.45,4.333
063430,99999,ROTTERDAM GEULHAVEN AWS,51.9,4.317
063440,99999,ROTTERDAM,51.957,4.437
063480,99999,CABAUW TOWER,51.967,4.933
063500,99999,GILZE RIJEN,51.567,4.932
063560,99999,HERWIJNEN AWS,51.85,5.133
063700,99999,EINDHOVEN,51.45,5.375
063750,99999,VOLKEL,51.656,5.709
063770,99999,ELL AWS,51.2,5.767
063790,99999,OOST MAARLAND AWS,50.8,5.717
063800,99999,MAASTRICHT,50.912,5.77
063850,99999,DE PEEL(NAFB),51.55,5.933
063910,99999,ARCEN AWS,51.5,6.2
064000,99999,KOKSIJDE,51.09,2.653
064040,99999,WEST-HINDER (LV),51.4,2.433
064070,99999,OOSTENDE,51.199,2.862
064080,99999,OOSTENDE (PIER),51.233,2.917
064100,99999,ZEEBRUGGE TERMINAL,51.35,3.2
064140,99999,BEITEM,50.9,3.117
064160,99999,WEVELGEM,50.817,3.2
064180,99999,ZEEBRUGGE,51.35,3.2
064280,99999,SEMMERZAKE,50.933,3.667
064310,99999,GENT/INDUSTRIE-ZONE,51.183,3.8
064320,99999,CHIEVRES AB,50.576,3.831
064324,99999,LIEGE,50.633,5.45
064325,99999,CASTEAU/HELI (MET),50.5,3.98
064340,99999,MELLE,50.983,3.817
064390,99999,SINT KATELIJNE-WAVER,51.083,4.517
064470,99999,UCCLE,50.8,4.35
064480,99999,MELSBROEK (BEL-AFB),50.9,4.5
064490,99999,BRUSSELS SOUTH,50.459,4.454
064494,99999,ELSENBORN,50.467,-6.217
064500,99999,DEURNE,51.189,4.46
064505,99999,BRUSSELLS (MIL),50.883,4.517
064510,99999,BRUSSELS NATL,50.901,4.484
064511,99999,BERTRIX,49.892,5.224
064514,99999,MELSBROEK (BEL-AFB),50.917,4.483
064520,99999,BRASSCHAAT (MIL),51.333,4.5
064550,99999,DOURBES,50.1,4.6
064560,99999,FLORENNES,50.243,4.646
064580,99999,BEAUVECHAIN,50.759,4.768
064590,99999,ERNAGE,50.583,4.683
064620,99999,WEELDE,51.395,4.96
064630,99999,GOETSENHOVEN (MIL),50.783,4.95
064640,99999,RETIE,51.217,5.033
064650,99999,SCHAFFEN,51,5.067
064700,99999,SINT TRUIDEN,50.792,5.202
064720,99999,HUMAIN,50.2,5.25
064730,99999,SINSIN,50.267,5.25
064740,99999,LIBRAMONT,49.917,5.367
064760,99999,SAINT HUBERT MIL,50.036,5.404
064765,99999,SAINT HUBERT,50.033,5.4
064770,99999,DIEPENBEEK,50.917,5.45
064780,99999,LIEGE,50.637,5.443
064785,99999,LIEGE/BIERSET(BAFB),50.633,5.45
064790,99999,KLEINE BROGEL,51.168,5.47
064800,99999,MEIX-DEVANT-VIRTON,49.6,5.483
064810,99999,GENK/ZWARTBERG,50.933,5.5
064820,99999,,,
064840,99999,BUZENOL,49.617,5.583
064900,99999,SPA/LA SAUVENIERE,50.483,5.917
064901,99999,SEMMERZAKE (BAFB),50.933,3.65
064940,99999,MONT-RIGI,50.517,6.067
064950,99999,BOTRANGE (MOUNT),50.5,6.1
064960,99999,ELSENBORN (MIL),50.467,6.183
065850,99999,CLERVAUX,50.05,6.017
065890,99999,LUXEMBOURG (BEGGEN),49.65,6.133
065900,99999,LUXEMBOURG,49.627,6.212
065970,99999,ECHTERNACH,49.8,6.45
065985,99999,BERTRIX (BEL-AFB),49.85,5.25
066000,99999,ST. CHRISCHONA,47.567,7.683
066010,99999,BASEL-BINNINGEN,47.55,7.583
066020,99999,DELEMONT,47.35,7.35
066040,99999,NEUCHATEL (AUT),47,6.95
066045,99999,LES EPLATURES,47.084,6.793
066050,99999,CHASSERAL,47.133,7.067
066060,99999,CRESSIER,47.05,7.067
066080,99999,CHAUMONT,47.05,6.983
066090,99999,LE MOLESON,46.55,7.017
066099,99999,DUBENDORF,47.399,8.648
066100,99999,PAYERNE,46.817,6.95
066120,99999,LA CHAUX-DE-FONDS,47.083,6.8
066130,99999,EMMEN,47.092,8.305
066140,99999,MEIRINGEN,46.743,8.11
066160,99999,FAHY-BONCOURT,47.433,6.95
066170,99999,LA BREVINE,46.983,6.617
066180,99999,MATHOD,46.733,6.567
066190,99999,BULLET-LA FRETAZ,46.833,6.583
066200,99999,SCHAFFHAUSEN,47.683,8.617
066210,99999,GUETTINGEN,47.6,9.283
066230,99999,SALEN-REUTENEN,47.65,9.017
066240,99999,HALLAU,47.683,8.467
066250,99999,FRIBOURG-POSIEUX,46.767,7.117
066260,99999,GOESGEN,47.367,7.983
066270,99999,CHATEAU-D'OEX,46.483,7.133
066280,99999,PLAFFEIEN,46.75,7.267
066300,99999,BERN-BELPMOOS,46.917,7.5
066303,99999,BERN BELP,46.914,7.497
066304,99999,SAMEDAN,46.534,9.884
066310,99999,BERN-ZOLLIKOFEN,46.983,7.467
066320,99999,GRENCHEN,47.183,7.417
066330,99999,BUCHS-AARAU,47.383,8.083
066350,99999,KOPPIGEN,47.133,7.617
066360,99999,MUEHLEBERG,46.983,7.283
066370,99999,MEIRINGEN,46.717,8.167
066380,99999,LANGNAU IE,46.933,7.8
066390,99999,NAPF,47,7.933
066400,99999,MARSENS,46.65,7.067
066410,99999,MOEHLIN,47.583,7.883
066430,99999,WYNAU,47.25,7.783
066440,99999,MOSEN,47.25,8.233
066450,99999,RUENENBERG,47.433,7.883
066460,99999,BEZNAU,47.567,8.233
066470,99999,WUERENLINGEN,47.533,8.233
066480,99999,EGOLZWIL,47.183,8
066490,99999,LAUFENBURG,47.55,8.05
066500,99999,LUZERN,47.033,8.3
066510,99999,SCHUEPFHEIM,46.95,8.017
066520,99999,FLUEHLI,46.883,8.017
066540,99999,BRUGG-WILDEGG,47.467,8.167
066550,99999,ENGELBERG,46.817,8.417
066560,99999,BRIENZ,46.75,8.067
066570,99999,GISWIL,46.85,8.2
066580,99999,ALPNACH,46.944,8.284
066590,99999,PILATUS,46.983,8.25
066600,99999,ZUERICH-FLUNTERN,47.383,8.567
066621,99999,GRENCHEN,47.182,7.417
066640,99999,ZUERICH-AFFOLTERN,47.433,8.517
066660,99999,LEIBSTADT,47.6,8.183
066690,99999,LAEGEREN,47.483,8.4
066700,99999,ZURICH,47.465,8.549
066710,99999,STECKBORN,47.667,8.983
066720,99999,ALTDORF,46.867,8.633
066730,99999,WAEDENSWIL,47.217,8.683
066740,99999,CHAM,47.183,8.467
066750,99999,EINSIEDELN,47.133,8.75
066760,99999,OBERAEGERI,47.133,8.617
066770,99999,UETLIBERG,47.35,8.483
066780,99999,BISCHOFSZELL,47.5,9.233
066790,99999,AADORF-TAENIKON,47.483,8.9
066800,99999,SAENTIS,47.25,9.35
066810,99999,ST. GALLEN,47.433,9.4
066811,99999,ST GALLEN ALTENRHEIN,47.485,9.561
066820,99999,ELM,46.917,9.183
066830,99999,SCHMERIKON,47.217,8.933
066840,99999,WEESEN,47.133,9.1
066850,99999,GLARUS,47.033,9.067
066860,99999,BAD RAGAZ,47.017,9.5
066870,99999,QUINTEN,47.133,9.217
066880,99999,CRAP MASEGN,46.85,9.183
066890,99999,HOERNLI,47.367,8.95
066900,99999,ALTENRHEIN,47.483,9.567
066930,99999,EBNAT-KAPPEL,47.267,9.1
066950,99999,ANDERMATT,46.633,8.583
067000,99999,GENEVA COINTRIN,46.238,6.109
067010,99999,LE CHENIT,46.6,6.217
067020,99999,LA DOLE,46.433,6.1
067030,99999,LES CHARBONNIERES,46.667,6.317
067040,99999,BIERE,46.517,6.333
067050,99999,NYON-CHANGINS,46.4,6.233
067060,99999,ST-PREX,46.483,6.45
067070,99999,VILLARS-TIERCELIN,46.617,6.717
067080,99999,ORON,46.567,6.867
067090,99999,BOUVERET,46.4,6.867
067100,99999,LAUSANNE,46.55,6.617
067110,99999,PULLY,46.517,6.667
067120,99999,AIGLE,46.333,6.917
067140,99999,LES DIABLERETS,46.333,7.2
067150,99999,EVIONNAZ,46.183,7.033
067160,99999,MOTTEC,46.15,7.617
067170,99999,COL DU GRAND ST BERNARD,45.867,7.167
067180,99999,NOVILLE,46.383,6.9
067200,99999,SION,46.22,7.327
067205,99999,SION,46.22,7.32
067210,99999,BINN,46.367,8.183
067220,99999,EVOLENE-VILLAZ,46.117,7.517
067230,99999,VERBIER-LES ATTLELAS,46.1,7.267
067240,99999,MONTANA,46.3,7.467
067250,99999,BLATTEN-LOETSCHENTAL,46.417,7.817
067260,99999,PLAINE MORTE,46.367,7.483
067270,99999,VISP,46.3,7.85
067280,99999,GRAECHEN,46.2,7.833
067300,99999,JUNGFRAUJOCH,46.55,7.983
067330,99999,BOLTIGEN,46.633,7.383
067340,99999,INTERLAKEN,46.667,7.867
067350,99999,ADELBODEN,46.5,7.567
067390,99999,EGGISHORN,46.433,8.083
067400,99999,TITLIS,46.767,8.433
067430,99999,ERNEN,46.4,8.133
067440,99999,GRIMSEL-HOSPIZ,46.567,8.333
067450,99999,ULRICHEN,46.5,8.317
067470,99999,MONTE ROSA,45.95,7.817
067480,99999,ZERMATT,46.033,7.75
067490,99999,GORNERGRAT,45.983,7.783
067500,99999,GUETSCH OB ANDERMATT,46.65,8.617
067510,99999,ROBIEI,46.45,8.517
067520,99999,CEVIO,46.317,8.6
067530,99999,PIOTTA,46.517,8.683
067540,99999,MATRO,46.417,8.933
067560,99999,ACQUAROSSA-COMPROVASCO,46.467,8.933
067570,99999,LODRINO,46.3,8.983
067580,99999,GRONO,46.25,9.167
067590,99999,CIMETTA,46.2,8.8
067600,99999,LOCARNO-MONTI,46.167,8.783
067620,99999,LOCARNO - MAGADINO,46.17,8.88
067700,99999,LUGANO,46.004,8.911
067710,99999,STABIO,45.85,8.933
067770,99999,MONTE GENEROSO,45.933,9.017
067780,99999,BUFFALORA,46.65,10.267
067790,99999,SEGL-MARIA,46.433,9.767
067800,99999,WEISSFLUHJOCH,46.833,9.817
067810,99999,TAVANASA,46.75,9.05
067820,99999,DISENTIS-SEDRUN,46.7,8.85
067830,99999,S BERNARDINO,46.467,9.183
067840,99999,DAVOS,46.817,9.85
067850,99999,AROSA,46.8,9.683
067860,99999,CHUR,46.867,9.533
067870,99999,ANDEER,46.617,9.433
067880,99999,VICOSOPRANO,46.35,9.633
067881,99999,HINTERRHIEN,46.517,9.183
067890,99999,ILANZ,46.783,9.217
067900,99999,SCHIERS,46.983,9.667
067910,99999,PIZ CORVATSCH,46.417,9.817
067920,99999,SAMEDAM,46.533,9.883
067930,99999,VALBELLA,46.75,9.55
067940,99999,POSCHIAVO-ROBBIA,46.35,10.067
067950,99999,PIZ MARTEGNAS,46.583,9.533
067960,99999,STA MARIA VAL MUESTAIR,46.6,10.433
067970,99999,PASSO DEL BERNINA,46.417,10.017
067980,99999,SCUOL,46.8,10.283
067990,99999,NALUNS,46.817,10.267
068065,99999,BUOCHS AIRPORT / STANS,46.967,8.4
068070,99999,DUEBENDORF,47.4,8.633
068420,99999,SITTERDORF,47.517,9.267
068460,99999,SCALOTTAS,46.717,9.517
068470,99999,BRIENZER ROTHORN,46.783,8.05
068480,99999,PFAEFERS,46.933,9.502
068490,99999,SALEZ,47.233,9.5
068500,99999,BACHTEL,47.3,8.883
068510,99999,HOMBRECHTIKOM,47.25,8.767
068520,99999,SENT,46.817,10.35
068570,99999,GAMS,47.2,9.417
069030,99999,DAVOS,46.817,9.85
069900,99999,VADUZ,47.133,9.517
070020,99999,BOULOGNE,50.733,1.6
070023,99999,CAPTIEUX,44.183,-0.267
070030,99999,LE TOUQUET PARIS PLAGE,50.515,1.627
070040,99999,CAP GRIS NEZ,50.867,1.583
070050,99999,ABBEVILLE,50.143,1.832
070070,99999,SAINT INGLEVERT,50.867,1.75
070090,99999,CALAIS/DUNKERQUE,50.967,1.95
070100,99999,DUNKERQUE,51.05,2.333
070130,99999,BIHUCOURT,50.117,2.8
070140,99999,BERCK-SUR-MER,50.417,1.6
070150,99999,LESQUIN,50.562,3.089
070160,99999,VITRY-EN-ARTOIS,50.333,3
070170,99999,EPINOY,50.222,3.154
070190,99999,BARFLEUR (POINT),49.7,-1.267
070200,99999,LA HAGUE,49.717,-1.933
070220,99999,VIGITE DU HAUMET,49.65,-1.5
070240,99999,MAUPERTUS,49.65,-1.47
070270,99999,CARPIQUET,49.173,-0.45
070280,99999,OCTEVILLE,49.534,0.088
070290,99999,PORT EN BESSIN,49.35,-0.767
070310,99999,ST GATIEN,49.365,0.154
070330,99999,VITTEFLEUR/ST. VALE,49.833,0.65
070340,99999,CARTERET,49.367,-1.8
070370,99999,VALLEE DE SEINE,49.384,1.175
070380,34061,EVREUX,49.017,1.217
070380,99999,FAUVILLE,49.029,1.22
070390,99999,VALOGNES (AUT),49.517,-1.5
070400,99999,DIEPPE,49.933,1.1
070440,99999,ANTIFER,49.65,0.15
070460,99999,LE HAVRE-OCTEVILLE,49.533,0.083
070530,99999,CORMEILLES,49.083,2.033
070550,99999,TILLE,49.454,2.113
070570,99999,CREIL,49.254,2.519
070580,99999,THIEULLOY-L'ABBAYE,49.817,1.967
070590,99999,MEAULTE,49.967,2.704
070600,99999,MONTDIDIER,49.667,2.583
070610,99999,ST. QUENTIN/ROUPY,49.817,3.2
070640,99999,BERRY-AU-BAC,0,0
070700,99999,CHAMPAGNE,49.31,4.05
070720,99999,REIMS-PRUNAY,49.217,4.15
070740,34072,SUIPPES GUN RANGE,49.15,4.633
070740,99999,SUIPPES RANGE (MET),49.15,4.633
070743,34072,SUIPPES RANGE (MET),49.15,4.533
070750,99999,CHARLEVILLE MEZIERES,49.784,4.647
070850,99999,BOGUS FRENCH,0,0
070881,34064,ETAIN,49.233,5.683
070891,99999,CHAMBLEY AB,49.033,5.867
070900,99999,FRESCATY,49.072,6.132
070910,99999,GROSTENQUIN AB,49.017,6.7
070930,99999,METZ NANCY LORRAINE,48.982,6.251
071000,99999,OUESSANT,48.483,-5.05
071020,99999,POINTE ST MATHIEU,48.333,-4.767
071030,99999,POINTE DU RAZ,48.033,-4.733
071040,99999,POINTE DE TOULINGUET,48.283,-4.633
071060,99999,LANDIVISIAU,48.53,-4.152
071070,99999,BRIGNOGAN,48.683,-4.333
071080,99999,PLABENNEC RADAR,48.47,-4.43
071090,99999,POULMIC,48.282,-4.445
071100,99999,GUIPAVAS,48.448,-4.419
071160,99999,BATZ ISLAND,48.75,-4.017
071165,99999,LANNION,48.75,-3.467
071170,99999,PLOUMANAC'H PERROS GUIREC,48.833,-3.467
071180,99999,LANNION,48.754,-3.472
071190,99999,ROSTRENEN,48.233,-3.3
071200,99999,ARMOR,48.538,-2.854
071210,99999,BREHAT ISLAND,48.85,-3
071230,99999,SAINT BRIEUC,48.517,-2.8
071233,99999,ST. BRIEUC ARMOR  &,48.517,-2.8
071250,99999,PLEURTUIT,48.588,-2.08
071270,99999,GROUIN DE CANCALE,48.717,-1.85
071300,99999,ST JACQUES,48.07,-1.735
071330,99999,POINTE DU ROC,48.833,-1.617
071340,99999,LAVAL-ETRONNIER,48.033,-0.733
071390,99999,ALENCON/VALFRAMBERT,48.45,0.117
071400,99999,CHATEAUDUN,48.058,1.377
071411,99999,DREUX,48.733,1.367
071430,99999,CHARTRES/CHAMPOL,48.467,1.517
071440,99999,BOGUS FRENCH,,
071450,99999,TRAPPES,48.767,2
071460,99999,TOUSSUS LE NOBLE,48.752,2.106
071465,99999,LA CROIX DU BOIS,48.75,2.067
071470,99999,VELIZY,48.774,2.202
071480,99999,BRETIGNY,48.6,2.333
071490,99999,ORLY,48.725,2.359
071500,99999,LE BOURGET,48.969,2.441
071515,99999,MAZAMET,43.556,2.289
